{
"type": "FeatureCollection",
"name": "Geoportail_WMS_Preview:Bornes_a_verre",
"crs": { "type": "name", "properties": { "name": "urn:ogc:def:crs:OGC:1.3:CRS84" } },
"features": [
{ "type": "Feature", "properties": { "gml_id": "F6239__8651", "OBJECTID": 8651, "Adresse": "899-1535 Rue de la Grève", "Observation": "Puygrenier", "Commune": "Dissay" }, "geometry": { "type": "Point", "coordinates": [ 0.403962643251705, 46.69707588548286 ] } },
{ "type": "Feature", "properties": { "gml_id": "F6239__8652", "OBJECTID": 8652, "Adresse": "Rue de la Grève", "Observation": "Salle Polyvalente", "Commune": "Dissay" }, "geometry": { "type": "Point", "coordinates": [ 0.418255737273078, 46.70287406188541 ] } },
{ "type": "Feature", "properties": { "gml_id": "F6239__8653", "OBJECTID": 8653, "Adresse": "Rue du Parc", "Observation": "Camping", "Commune": "Dissay" }, "geometry": { "type": "Point", "coordinates": [ 0.426238520238285, 46.698416280637879 ] } },
{ "type": "Feature", "properties": { "gml_id": "F6239__8654", "OBJECTID": 8654, "Adresse": "Chemein des Meuniers", "Observation": "Chemein des Meuniers" }, "geometry": { "type": "Point", "coordinates": [ 0.406808610600339, 46.704241069611705 ] } },
{ "type": "Feature", "properties": { "gml_id": "F6239__8655", "OBJECTID": 8655, "Adresse": "Rue du Grand Tillet", "Observation": "Camping Croix du Sud", "Commune": "Jaunay-Marigny" }, "geometry": { "type": "Point", "coordinates": [ 0.35788910257311, 46.682922847647895 ] } },
{ "type": "Feature", "properties": { "gml_id": "F6239__8656", "OBJECTID": 8656, "Adresse": "Chemin de l'Autoroute", "Observation": "Aire de covoiturage", "Commune": "Jaunay-Marigny" }, "geometry": { "type": "Point", "coordinates": [ 0.363740708291673, 46.684090097663208 ] } },
{ "type": "Feature", "properties": { "gml_id": "F6239__8961", "OBJECTID": 8961, "Adresse": "L'Aquitaine", "Observation": "A10", "Commune": "Jaunay-Marigny" }, "geometry": { "type": "Point", "coordinates": [ 0.37155855268927, 46.702981197189551 ] } },
{ "type": "Feature", "properties": { "gml_id": "F6239__8962", "OBJECTID": 8962, "Adresse": "Chemin de Pourret", "Observation": "Intermarché (n°1)", "Commune": "Jaunay-Marigny" }, "geometry": { "type": "Point", "coordinates": [ 0.379449451213679, 46.699336687244745 ] } },
{ "type": "Feature", "properties": { "gml_id": "F6239__8963", "OBJECTID": 8963, "Adresse": "Rue de la Viaube", "Observation": "CTM", "Commune": "Jaunay-Marigny" }, "geometry": { "type": "Point", "coordinates": [ 0.383330575747782, 46.690994920041824 ] } },
{ "type": "Feature", "properties": { "gml_id": "F6239__8964", "OBJECTID": 8964, "Adresse": "3 Rue de la Haute Payre", "Observation": "Site du Moulin", "Commune": "Jaunay-Marigny" }, "geometry": { "type": "Point", "coordinates": [ 0.375843104254055, 46.673723769922205 ] } },
{ "type": "Feature", "properties": { "gml_id": "F6239__8965", "OBJECTID": 8965, "Adresse": "16 Avenue Gérard Girault", "Observation": "Salle Multimédia", "Commune": "Jaunay-Marigny" }, "geometry": { "type": "Point", "coordinates": [ 0.373396071717253, 46.6824977540589 ] } },
{ "type": "Feature", "properties": { "gml_id": "F6239__8966", "OBJECTID": 8966, "Adresse": "16 Avenue Gérard Girault", "Observation": "Ancien Intermarché", "Commune": "Jaunay-Marigny" }, "geometry": { "type": "Point", "coordinates": [ 0.372752830865408, 46.682017000120496 ] } },
{ "type": "Feature", "properties": { "gml_id": "F6239__8967", "OBJECTID": 8967, "Adresse": "16 Chemin du Trait Blanc", "Observation": "Centre de vie", "Commune": "Jaunay-Marigny" }, "geometry": { "type": "Point", "coordinates": [ 0.36281174064224, 46.672327980987909 ] } },
{ "type": "Feature", "properties": { "gml_id": "F6239__8968", "OBJECTID": 8968, "Adresse": "20 Rue du Bélvédère", "Observation": "Les Estudies", "Commune": "Jaunay-Marigny" }, "geometry": { "type": "Point", "coordinates": [ 0.365819849174814, 46.68065316741226 ] } },
{ "type": "Feature", "properties": { "gml_id": "F6239__8969", "OBJECTID": 8969, "Adresse": "28 Rue du Petit Bois", "Observation": "Parigny (n°1)", "Commune": "Jaunay-Marigny" }, "geometry": { "type": "Point", "coordinates": [ 0.377878629372469, 46.710773988306642 ] } },
{ "type": "Feature", "properties": { "gml_id": "F6239__8970", "OBJECTID": 8970, "Adresse": "1 Place des Clématiques", "Observation": "Louneuil", "Commune": "Jaunay-Marigny" }, "geometry": { "type": "Point", "coordinates": [ 0.314299597079923, 46.687867622558436 ] } },
{ "type": "Feature", "properties": { "gml_id": "F6239__8971", "OBJECTID": 8971, "Adresse": "Rue de la Grand'raise", "Observation": "Bellevue (n°1)", "Commune": "Jaunay-Marigny" }, "geometry": { "type": "Point", "coordinates": [ 0.369201746066667, 46.692218800162209 ] } },
{ "type": "Feature", "properties": { "gml_id": "F6239__8972", "OBJECTID": 8972, "Adresse": "39 Rue de Poitiers", "Observation": "n°1", "Commune": "Jaunay-Marigny" }, "geometry": { "type": "Point", "coordinates": [ 0.372774729597005, 46.679196908668708 ] } },
{ "type": "Feature", "properties": { "gml_id": "F6239__8973", "OBJECTID": 8973, "Adresse": "8-12 Rue du Marché", "Observation": "Champ de foire", "Commune": "Jaunay-Marigny" }, "geometry": { "type": "Point", "coordinates": [ 0.368650294787165, 46.685919724870629 ] } },
{ "type": "Feature", "properties": { "gml_id": "F6239__8974", "OBJECTID": 8974, "Adresse": "9 Rue des 4 Rivières", "Observation": "Cité gendarmerie", "Commune": "Jaunay-Marigny" }, "geometry": { "type": "Point", "coordinates": [ 0.370356108509179, 46.680560350291785 ] } },
{ "type": "Feature", "properties": { "gml_id": "F6239__8975", "OBJECTID": 8975, "Adresse": "4 Rue des Ecoles", "Observation": "Boulodrome", "Commune": "Jaunay-Marigny" }, "geometry": { "type": "Point", "coordinates": [ 0.374333797049966, 46.68354533216479 ] } },
{ "type": "Feature", "properties": { "gml_id": "F6239__174", "OBJECTID": 174, "Numéro_de_borne": 491, "Volume": 3, "Fréquence_de_la_collecte": "7 jours", "Adresse": "Rue du grand Mazais\nAprès la société Melin terre plein face n° 6\n" }, "geometry": { "type": "Point", "coordinates": [ 0.294996663826698, 46.562776384627192 ] } },
{ "type": "Feature", "properties": { "gml_id": "F6239__109", "OBJECTID": 109, "Numéro_de_borne": 378, "Volume": 3, "Fréquence_de_la_collecte": "30 jours", "Adresse": "Rue de l'abbaye\nSalle de la Feuillante (ancien cimetière)\n", "Commune": "Fontaine-le-Comte" }, "geometry": { "type": "Point", "coordinates": [ 0.263129920122938, 46.526189973403255 ] } },
{ "type": "Feature", "properties": { "gml_id": "F6239__108", "OBJECTID": 108, "Numéro_de_borne": 381, "Volume": 3, "Fréquence_de_la_collecte": "30 jours", "Adresse": "Rue de Monsabert\nFace ai ,° 36 (près du lavoir)\n", "Commune": "Fontaine-le-Comte" }, "geometry": { "type": "Point", "coordinates": [ 0.255914672642053, 46.533238195424623 ] } },
{ "type": "Feature", "properties": { "gml_id": "F6239__9", "OBJECTID": 9, "Numéro_de_borne": 131, "Volume": 3, "Fréquence_de_la_collecte": "30 jours", "Adresse": "Rue Nelson Mandela\nPlace de parking n°6 (proche presse journaux et saladerie)\n" }, "geometry": { "type": "Point", "coordinates": [ 0.371116980727979, 46.588726018839992 ] } },
{ "type": "Feature", "properties": { "gml_id": "F6239__7415", "OBJECTID": 7415, "Volume": 4, "Adresse": "CHE DES ARSIS", "Observation": "Chantelle", "Commune": "261", "Fournisseur": "Temaco", "CCORIV": "0008" }, "geometry": { "type": "Point", "coordinates": [ 0.435935902679628, 46.575838777502007 ] } },
{ "type": "Feature", "properties": { "gml_id": "F6239__7416", "OBJECTID": 7416, "Volume": 3, "Adresse": "CHE DES ARSIS", "Observation": "Chantelle", "Commune": "261", "Fournisseur": "Plastic Omnium", "CCORIV": "0008" }, "geometry": { "type": "Point", "coordinates": [ 0.43597029409421, 46.575860348507476 ] } },
{ "type": "Feature", "properties": { "gml_id": "F6239__7417", "OBJECTID": 7417, "Volume": 3, "Adresse": "LA ROUTE", "Observation": "Bourg - Rte de fleuré", "Commune": "Tercé", "Fournisseur": "Plastic Omnium", "CCORIV": "B088" }, "geometry": { "type": "Point", "coordinates": [ 0.56221579273808, 46.515574508964121 ] } },
{ "type": "Feature", "properties": { "gml_id": "F6239__7418", "OBJECTID": 7418, "Volume": 3, "Adresse": "LA ROUTE", "Observation": "Bourg - Rte de fleuré", "Commune": "Tercé", "Fournisseur": "Plastic Omnium", "CCORIV": "B088" }, "geometry": { "type": "Point", "coordinates": [ 0.562167756756631, 46.515522649546547 ] } },
{ "type": "Feature", "properties": { "gml_id": "F6239__7419", "OBJECTID": 7419, "Volume": 3, "Adresse": "RTE DE SAINT JULIEN", "Observation": "Salle du Friaula", "Commune": "Tercé", "Fournisseur": "Plastic Omnium", "CCORIV": "0014" }, "geometry": { "type": "Point", "coordinates": [ 0.563223558456805, 46.517723918825091 ] } },
{ "type": "Feature", "properties": { "gml_id": "F6239__7420", "OBJECTID": 7420, "Volume": 4, "Adresse": "RTE DE SAINT JULIEN", "Observation": "Salle du Friaula", "Commune": "Tercé", "Fournisseur": "Temaco", "CCORIV": "0014" }, "geometry": { "type": "Point", "coordinates": [ 0.563239373720899, 46.51771111026541 ] } },
{ "type": "Feature", "properties": { "gml_id": "F6239__7421", "OBJECTID": 7421, "Volume": 4, "Adresse": "NORMANDOUX", "Observation": "Normandoux", "Commune": "Tercé", "Fournisseur": "Temaco", "CCORIV": "B063" }, "geometry": { "type": "Point", "coordinates": [ 0.560110819719693, 46.521884141810666 ] } },
{ "type": "Feature", "properties": { "gml_id": "F6239__7422", "OBJECTID": 7422, "Volume": 4, "Adresse": "LA QUAILLERE", "Observation": "La Quaillère", "Commune": "Tercé", "Fournisseur": "Temaco", "CCORIV": "B084" }, "geometry": { "type": "Point", "coordinates": [ 0.529514406492804, 46.520757545790381 ] } },
{ "type": "Feature", "properties": { "gml_id": "F6239__10561", "OBJECTID": 10561 }, "geometry": { "type": "Point", "coordinates": [ 0.28719894937308, 46.513965080261869 ] } },
{ "type": "Feature", "properties": { "gml_id": "F6239__228", "OBJECTID": 228, "Numéro_de_borne": 16, "Volume": 3, "Fréquence_de_la_collecte": "7 jours", "Adresse": "Place de la Cathédrale et du Cardinal Pie\nSur une place de Parking\n" }, "geometry": { "type": "Point", "coordinates": [ 0.349475196769701, 46.580668293511557 ] } },
{ "type": "Feature", "properties": { "gml_id": "F6239__156", "OBJECTID": 156, "Numéro_de_borne": 17, "Volume": 3, "Fréquence_de_la_collecte": "14 jours", "Adresse": "Angle rue des Carmélites et rue Dom Fonteneau\nSur une place de Parking\n" }, "geometry": { "type": "Point", "coordinates": [ 0.339902638713789, 46.586569361768994 ] } },
{ "type": "Feature", "properties": { "gml_id": "F6239__2241", "OBJECTID": 2241, "Numéro_de_borne": 19, "Volume": 3, "Fréquence_de_la_collecte": "7 jours", "Adresse": "Rue Léopold Thezard\nCRS\n" }, "geometry": { "type": "Point", "coordinates": [ 0.335514157275746, 46.57615455401158 ] } },
{ "type": "Feature", "properties": { "gml_id": "F6239__7", "OBJECTID": 7, "Numéro_de_borne": 105, "Volume": 3, "Fréquence_de_la_collecte": "14 jours", "Adresse": "Intersection av. Iaroslav et av. d'Iassy\nSous le panneau directionnel. Proche ZAE Denis Papin\n" }, "geometry": { "type": "Point", "coordinates": [ 0.389461670016839, 46.574704041436597 ] } },
{ "type": "Feature", "properties": { "gml_id": "F6239__190", "OBJECTID": 190, "Numéro_de_borne": 107, "Volume": 3, "Fréquence_de_la_collecte": "30 jours", "Adresse": "Place de Jutreau (accès par rue de la Motte\nIntérieure du rond point à côté du parking\n" }, "geometry": { "type": "Point", "coordinates": [ 0.387685045725101, 46.571175809743352 ] } },
{ "type": "Feature", "properties": { "gml_id": "F6239__8976", "OBJECTID": 8976, "Adresse": "9 Rue des Allées", "Observation": "Chincé (n°1)", "Commune": "Jaunay-Marigny" }, "geometry": { "type": "Point", "coordinates": [ 0.352673457061953, 46.708952734641407 ] } },
{ "type": "Feature", "properties": { "gml_id": "F6239__9281", "OBJECTID": 9281, "Adresse": "6 Rue de l'Allée", "Observation": "Chincé (n°2)", "Commune": "Jaunay-Marigny" }, "geometry": { "type": "Point", "coordinates": [ 0.352654343882826, 46.708918947138123 ] } },
{ "type": "Feature", "properties": { "gml_id": "F6239__122", "OBJECTID": 122, "Numéro_de_borne": 158, "Volume": 3, "Fréquence_de_la_collecte": "7 jours", "Adresse": "Rue Clément Ader\nSur la place face au n°19 (anciennement les restos du cœur)\n" }, "geometry": { "type": "Point", "coordinates": [ 0.319596750966607, 46.593239103718034 ] } },
{ "type": "Feature", "properties": { "gml_id": "F6239__20", "OBJECTID": 20, "Numéro_de_borne": 108, "Volume": 3, "Fréquence_de_la_collecte": "14 jours", "Adresse": "Parcobus Champlain\nAvant les arrêts de bus. Prendre le sens de circulation des Bus\n" }, "geometry": { "type": "Point", "coordinates": [ 0.388600793467092, 46.568432679227271 ] } },
{ "type": "Feature", "properties": { "gml_id": "F6239__2913", "OBJECTID": 2913, "Numéro_de_borne": 111, "Volume": 3, "Fréquence_de_la_collecte": "30 jours", "Adresse": "Rue de Beaupuy\nDerrière réception Casino. Au bout de la rue\n" }, "geometry": { "type": "Point", "coordinates": [ 0.37451301789412, 46.572604624001741 ] } },
{ "type": "Feature", "properties": { "gml_id": "F6239__87", "OBJECTID": 87, "Numéro_de_borne": 148, "Volume": 3, "Fréquence_de_la_collecte": "14 jours", "Adresse": "Rue Olivier de Serres\nA côté du lycée Louis Armand. A côté de l'abri bus (face n°39)\n" }, "geometry": { "type": "Point", "coordinates": [ 0.331129855539706, 46.597314372172988 ] } },
{ "type": "Feature", "properties": { "gml_id": "F6239__86", "OBJECTID": 86, "Numéro_de_borne": 154, "Volume": 3, "Fréquence_de_la_collecte": "7 jours", "Adresse": "Angle rue de la Roche et rue du clos de la Roche\nCollecte possible en venant de la rue du clos de la Roche. (cause fils téléphonique)\n" }, "geometry": { "type": "Point", "coordinates": [ 0.330591652239301, 46.587740878070377 ] } },
{ "type": "Feature", "properties": { "gml_id": "F6239__85", "OBJECTID": 85, "Numéro_de_borne": 164, "Volume": 3, "Fréquence_de_la_collecte": "7 jours", "Adresse": "Angle rue Jean Mermoz et impasse du Colonel Biraud\tsur le trottoir à côté boite aux lettres jaune\n" }, "geometry": { "type": "Point", "coordinates": [ 0.325691879660503, 46.583334961259887 ] } },
{ "type": "Feature", "properties": { "gml_id": "F6239__66", "OBJECTID": 66, "Numéro_de_borne": 166, "Volume": 3, "Fréquence_de_la_collecte": "14 jours", "Adresse": "Angle av.de Nantes et rue Rique Avoine\nDevant la boulangerie \" L'épi gaulois\"\n" }, "geometry": { "type": "Point", "coordinates": [ 0.328500233355581, 46.592658265306589 ] } },
{ "type": "Feature", "properties": { "gml_id": "F6239__3201", "OBJECTID": 3201, "Numéro_de_borne": 167, "Volume": 3, "Fréquence_de_la_collecte": "0", "Adresse": "Rue des Milles Bosses\nSur emplacement camping car. Devant camping du Porteau" }, "geometry": { "type": "Point", "coordinates": [ 0.338714188593396, 46.601729157811732 ] } },
{ "type": "Feature", "properties": { "gml_id": "F6239__102", "OBJECTID": 102, "Numéro_de_borne": 168, "Volume": 3, "Fréquence_de_la_collecte": "0", "Adresse": "Angle rue de la Tourelle et rue du Jardin\nDevant le gymnase du collège Rabelais\n" }, "geometry": { "type": "Point", "coordinates": [ 0.319215194088697, 46.576858267881512 ] } },
{ "type": "Feature", "properties": { "gml_id": "F6239__3202", "OBJECTID": 3202, "Numéro_de_borne": 0, "Volume": 2, "Fréquence_de_la_collecte": "0", "Adresse": "Rue Antoine Becquerel\nCTM" }, "geometry": { "type": "Point", "coordinates": [ 0.345021302861456, 46.614275423759672 ] } },
{ "type": "Feature", "properties": { "gml_id": "F6239__285", "OBJECTID": 285, "Numéro_de_borne": 273, "Volume": 3, "Fréquence_de_la_collecte": "14 jours", "Adresse": "Rue de la Ganterie\nDevant entrée cuisine lycée Camille Guérin et devant salle Lawson Body\n" }, "geometry": { "type": "Point", "coordinates": [ 0.368273302294701, 46.569572480345649 ] } },
{ "type": "Feature", "properties": { "gml_id": "F6239__94", "OBJECTID": 94, "Numéro_de_borne": 281, "Volume": 3, "Fréquence_de_la_collecte": "7 jours", "Adresse": "Angle rue du Père de la Croix et rue du Petit Polygone\nAngle grillage stade de foot face garage des Dunes\n" }, "geometry": { "type": "Point", "coordinates": [ 0.358651717367161, 46.577375971899166 ] } },
{ "type": "Feature", "properties": { "gml_id": "F6239__290", "OBJECTID": 290, "Numéro_de_borne": 283, "Volume": 3, "Fréquence_de_la_collecte": "14 jours", "Adresse": "Rue de Babien\nAu rond-point sous le pont de la Pénétrante après la cabine téléphonique\n" }, "geometry": { "type": "Point", "coordinates": [ 0.366176686025541, 46.580309247599715 ] } },
{ "type": "Feature", "properties": { "gml_id": "F6239__3521", "OBJECTID": 3521, "Numéro_de_borne": 287, "Volume": 3, "Fréquence_de_la_collecte": "30 jours", "Adresse": "Rue du Faubourg du Pont Neuf\tSur trottoir devant sation Avia\n" }, "geometry": { "type": "Point", "coordinates": [ 0.363922835472342, 46.573029648373584 ] } },
{ "type": "Feature", "properties": { "gml_id": "F6239__153", "OBJECTID": 153, "Numéro_de_borne": 403, "Volume": 3, "Fréquence_de_la_collecte": "14 jours", "Adresse": "Rue des Artisans Z. économique de Mignaloux Beaubâton\n50 m après magasin SHOPI\n" }, "geometry": { "type": "Point", "coordinates": [ 0.402229874043253, 46.539889948688938 ] } },
{ "type": "Feature", "properties": { "gml_id": "F6239__178", "OBJECTID": 178, "Numéro_de_borne": 370, "Volume": 3, "Fréquence_de_la_collecte": "14 jours", "Adresse": "Angle rue de la Berlanderie et rues des champs du Roy\nLes Hauts de Croutelle\n", "Commune": "Croutelle" }, "geometry": { "type": "Point", "coordinates": [ 0.289872617829749, 46.545251044651636 ] } },
{ "type": "Feature", "properties": { "gml_id": "F6239__210", "OBJECTID": 210, "Numéro_de_borne": 497, "Volume": 3, "Fréquence_de_la_collecte": "7 jours", "Adresse": "Rue des Rataudes\nSur la gauche avant tunnel en allant chez EMMAUS\n" }, "geometry": { "type": "Point", "coordinates": [ 0.305403179213616, 46.565513024281117 ] } },
{ "type": "Feature", "properties": { "gml_id": "F6239__144", "OBJECTID": 144, "Numéro_de_borne": 380, "Volume": 3, "Fréquence_de_la_collecte": "14 jours", "Adresse": "Rue Victor Hugo lotissement des Vignes de Chaumont\nFace au n° 8 (à environ 30m abris bus)\n", "Commune": "Fontaine-le-Comte" }, "geometry": { "type": "Point", "coordinates": [ 0.277262207706982, 46.538247512256326 ] } },
{ "type": "Feature", "properties": { "gml_id": "F6239__192", "OBJECTID": 192, "Numéro_de_borne": 127, "Volume": 3, "Fréquence_de_la_collecte": "30 jours", "Adresse": "Rue du 14 juillet 1789\nFace au Lycée st Jacques de Compostelle. Devant URSSAF\n" }, "geometry": { "type": "Point", "coordinates": [ 0.381393458868648, 46.586175299061686 ] } },
{ "type": "Feature", "properties": { "gml_id": "F6239__120", "OBJECTID": 120, "Numéro_de_borne": 132, "Volume": 3, "Fréquence_de_la_collecte": "7 jours", "Adresse": "Angle rue de St Eloi et rue d'Elicourt\nArrêt de bus Vitalis sur le terre-plein\n" }, "geometry": { "type": "Point", "coordinates": [ 0.374635070446133, 46.589605743150692 ] } },
{ "type": "Feature", "properties": { "gml_id": "F6239__196", "OBJECTID": 196, "Numéro_de_borne": 146, "Volume": 4, "Fréquence_de_la_collecte": "30 jours", "Adresse": "Entre la rue Emile Roux et rue de Quinçay\nPlace du Marché de Bel Air\n" }, "geometry": { "type": "Point", "coordinates": [ 0.325031252017441, 46.58996721538044 ] } },
{ "type": "Feature", "properties": { "gml_id": "F6239__12", "OBJECTID": 12, "Numéro_de_borne": 147, "Volume": 4, "Fréquence_de_la_collecte": "7 jours", "Adresse": "Angle rue Jean Mermoz et rue de Larnay\nSur trottoir entre l'arbre et panneau signalisation\n" }, "geometry": { "type": "Point", "coordinates": [ 0.326286930279542, 46.588032565687335 ] } },
{ "type": "Feature", "properties": { "gml_id": "F6239__201", "OBJECTID": 201, "Numéro_de_borne": 152, "Volume": 3, "Fréquence_de_la_collecte": "14 jours", "Adresse": "Rue du Salvert\nPlace de parking face n°131. Accés par rue de la Grange St Pierre\n" }, "geometry": { "type": "Point", "coordinates": [ 0.334829595800536, 46.603140162094903 ] } },
{ "type": "Feature", "properties": { "gml_id": "F6239__13", "OBJECTID": 13, "Numéro_de_borne": 153, "Volume": 3, "Fréquence_de_la_collecte": "7 jours", "Adresse": "Av.de la Paix\nDevant la place Chocquin de Sarzec. Place de parking le long de la route\n" }, "geometry": { "type": "Point", "coordinates": [ 0.334819016656396, 46.589226914235446 ] } },
{ "type": "Feature", "properties": { "gml_id": "F6239__279", "OBJECTID": 279, "Numéro_de_borne": 157, "Volume": 3, "Fréquence_de_la_collecte": "30 jours", "Adresse": "Rue Dieudonné Costes\nFace au foyer des jeunes travailleurs. Comme avant.\n" }, "geometry": { "type": "Point", "coordinates": [ 0.326046766386594, 46.594399640391487 ] } },
{ "type": "Feature", "properties": { "gml_id": "F6239__232", "OBJECTID": 232, "Numéro_de_borne": 275, "Volume": 3, "Fréquence_de_la_collecte": "14 jours", "Adresse": "Angle route de Nouaillé et rue Emile Zola\nSur le parking\n" }, "geometry": { "type": "Point", "coordinates": [ 0.362086638755111, 46.567617284190447 ] } },
{ "type": "Feature", "properties": { "gml_id": "F6239__56", "OBJECTID": 56, "Numéro_de_borne": 280, "Volume": 3, "Fréquence_de_la_collecte": "14 jours", "Adresse": "Rue du Dolmen\t\nA côté cabine téléphonique du lycée face imposse résidence de la Frappière\n" }, "geometry": { "type": "Point", "coordinates": [ 0.355587283329453, 46.581902207208863 ] } },
{ "type": "Feature", "properties": { "gml_id": "F6239__55", "OBJECTID": 55, "Numéro_de_borne": 239, "Volume": 3, "Fréquence_de_la_collecte": "14 jours", "Adresse": "Rue de la Croix Rouge\nJuste dans l'angle du Pont Joubert\n" }, "geometry": { "type": "Point", "coordinates": [ 0.355005368792243, 46.584182063378307 ] } },
{ "type": "Feature", "properties": { "gml_id": "F6239__3203", "OBJECTID": 3203, "Numéro_de_borne": 286, "Volume": 3, "Fréquence_de_la_collecte": "14 jours", "Adresse": "Rue du Faubourg du Pont Neuf\tJuste après la rue Pasteur dans l'angle du Mure\n" }, "geometry": { "type": "Point", "coordinates": [ 0.352907023200178, 46.576494605127259 ] } },
{ "type": "Feature", "properties": { "gml_id": "F6239__5762", "OBJECTID": 5762, "Numéro_de_borne": 362, "Volume": 3, "Fréquence_de_la_collecte": "14 jours", "Adresse": "Sur parking prés supermarché, \"rue du commerce\".", "Jour_de_la_collecte": "mardi" }, "geometry": { "type": "Point", "coordinates": [ 0.366907177275775, 46.652463294169188 ] } },
{ "type": "Feature", "properties": { "gml_id": "F6239__204", "OBJECTID": 204, "Numéro_de_borne": 227, "Volume": 3, "Fréquence_de_la_collecte": "30 jours", "Adresse": "Rue de Bourgogne\nFace entrée EDF-GDF sur trottoir vers batiment n° 69\n" }, "geometry": { "type": "Point", "coordinates": [ 0.364339262325682, 46.586685271508443 ] } },
{ "type": "Feature", "properties": { "gml_id": "F6239__286", "OBJECTID": 286, "Numéro_de_borne": 228, "Volume": 3, "Fréquence_de_la_collecte": "30 jours", "Adresse": "Av. de l'Europe\nSur angle stabilisé face batiment n° 82  (face peinture fœtus)\n" }, "geometry": { "type": "Point", "coordinates": [ 0.354695908413623, 46.589947395928974 ] } },
{ "type": "Feature", "properties": { "gml_id": "F6239__52", "OBJECTID": 52, "Numéro_de_borne": 233, "Volume": 3, "Fréquence_de_la_collecte": "30 jours", "Adresse": "Allée du Parc (place du Bocage)\tSur place face entrée garage n° 1 (à côté emplacement poubelle)" }, "geometry": { "type": "Point", "coordinates": [ 0.349979123446944, 46.591441818664123 ] } },
{ "type": "Feature", "properties": { "gml_id": "F6239__239", "OBJECTID": 239, "Numéro_de_borne": 236, "Volume": 3, "Fréquence_de_la_collecte": "14 jours", "Adresse": "Place de Guyenne                  \nAv. de l'Europe\nCentre commercial de l'Europe (derrière Aqua Gym)\n" }, "geometry": { "type": "Point", "coordinates": [ 0.353296843358424, 46.591281189191321 ] } },
{ "type": "Feature", "properties": { "gml_id": "F6239__287", "OBJECTID": 287, "Numéro_de_borne": 238, "Volume": 3, "Fréquence_de_la_collecte": "14 jours", "Adresse": "Rue des Couronneries\nA l'entrée du parking sur la gauche. Face maison n° 89 et 91\n" }, "geometry": { "type": "Point", "coordinates": [ 0.356152241573026, 46.590978401200793 ] } },
{ "type": "Feature", "properties": { "gml_id": "F6239__168", "OBJECTID": 168, "Numéro_de_borne": 242, "Volume": 3, "Fréquence_de_la_collecte": "30 jours", "Adresse": "Angle allée de Saintonge et rue de Québec\nAngle trottoir vers borne incendie face terrain foot de Québec\n\n" }, "geometry": { "type": "Point", "coordinates": [ 0.352780641798992, 46.592741175660898 ] } },
{ "type": "Feature", "properties": { "gml_id": "F6239__205", "OBJECTID": 205, "Numéro_de_borne": 246, "Volume": 3, "Fréquence_de_la_collecte": "14 jours", "Adresse": "Rue de Picardie\nDevant batiment n°1 à côté emplacement poubelles\n" }, "geometry": { "type": "Point", "coordinates": [ 0.362448763827634, 46.589222008620169 ] } },
{ "type": "Feature", "properties": { "gml_id": "F6239__130", "OBJECTID": 130, "Numéro_de_borne": 247, "Volume": 3, "Fréquence_de_la_collecte": "30 jours", "Adresse": "Rue Pierre de Coubertin\nFace n° 29 (gymnase) sur trottoir face arrêt de bus\n" }, "geometry": { "type": "Point", "coordinates": [ 0.365982295357468, 46.590338708994771 ] } },
{ "type": "Feature", "properties": { "gml_id": "F6239__18", "OBJECTID": 18, "Numéro_de_borne": 248, "Volume": 3, "Fréquence_de_la_collecte": "30 jours", "Adresse": "Rue Pierre de Coubertin\nSur trottoir à côté du batiment n° 4 à côté des bacs OM\n" }, "geometry": { "type": "Point", "coordinates": [ 0.367277982263258, 46.592994066861195 ] } },
{ "type": "Feature", "properties": { "gml_id": "F6239__3841", "OBJECTID": 3841, "Numéro_de_borne": 250, "Volume": 3, "Fréquence_de_la_collecte": "30 jours", "Adresse": "Rue de Tiffauge\nFace n° 44 sur place avec Tilleuls\n" }, "geometry": { "type": "Point", "coordinates": [ 0.348223366250433, 46.592668538913358 ] } },
{ "type": "Feature", "properties": { "gml_id": "F6239__3842", "OBJECTID": 3842, "Numéro_de_borne": 252, "Volume": 3, "Fréquence_de_la_collecte": "30 jours", "Adresse": "Angle rue de Nimègue et rue Alexandre Dumas\nSur trottoir devant batiment n° 2\n" }, "geometry": { "type": "Point", "coordinates": [ 0.362749689238908, 46.592435009344449 ] } },
{ "type": "Feature", "properties": { "gml_id": "F6239__163", "OBJECTID": 163, "Numéro_de_borne": 80, "Volume": 4, "Fréquence_de_la_collecte": "7 jours", "Adresse": "Rue de la Rochefoucault\nSur parking, face petit centre commercial\n" }, "geometry": { "type": "Point", "coordinates": [ 0.37377741230601, 46.565222258470939 ] } },
{ "type": "Feature", "properties": { "gml_id": "F6239__121", "OBJECTID": 121, "Numéro_de_borne": 85, "Volume": 3, "Fréquence_de_la_collecte": "14 jours", "Adresse": "Av. Mozart\t\nFace résidence Mozart à droite de l'arrêt de bus\n" }, "geometry": { "type": "Point", "coordinates": [ 0.371555386630243, 46.56177059012338 ] } },
{ "type": "Feature", "properties": { "gml_id": "F6239__2881", "OBJECTID": 2881, "Numéro_de_borne": 276, "Volume": 3, "Fréquence_de_la_collecte": "14 jours", "Adresse": "Rue des Grandchamps\nLe long du trottoir sur place de parking\n" }, "geometry": { "type": "Point", "coordinates": [ 0.377588424638041, 46.563690139022654 ] } },
{ "type": "Feature", "properties": { "gml_id": "F6239__134", "OBJECTID": 134, "Numéro_de_borne": 87, "Volume": 3, "Fréquence_de_la_collecte": "30 jours", "Adresse": "Rue Raoul Follereau\n2éme batiment de cité universitaire\n" }, "geometry": { "type": "Point", "coordinates": [ 0.388012063999936, 46.567294712982573 ] } },
{ "type": "Feature", "properties": { "gml_id": "F6239__2882", "OBJECTID": 2882, "Numéro_de_borne": 89, "Volume": 3, "Fréquence_de_la_collecte": "14 jours", "Adresse": "Rue du Briandon ( le Patis)\tPetite place proche parking. A droite de chez ianesco\n" }, "geometry": { "type": "Point", "coordinates": [ 0.390150160733987, 46.561172959402093 ] } },
{ "type": "Feature", "properties": { "gml_id": "F6239__211", "OBJECTID": 211, "Numéro_de_borne": 92, "Volume": 3, "Fréquence_de_la_collecte": "30 jours", "Adresse": "Av. du Recteur Pineau\nEntre le restaurant universitaire Rabelais et le stade Rébeillau\n" }, "geometry": { "type": "Point", "coordinates": [ 0.373606656104517, 46.571371597926777 ] } },
{ "type": "Feature", "properties": { "gml_id": "F6239__2883", "OBJECTID": 2883, "Numéro_de_borne": 93, "Volume": 3, "Fréquence_de_la_collecte": "7 jours", "Adresse": "Rue de la Maison Coupée (le Patis)\nDevant le magasin ED\n" }, "geometry": { "type": "Point", "coordinates": [ 0.397018402778523, 46.555696678363404 ] } },
{ "type": "Feature", "properties": { "gml_id": "F6239__129", "OBJECTID": 129, "Numéro_de_borne": 232, "Volume": 3, "Fréquence_de_la_collecte": "30 jours", "Adresse": "Rue de Slovénie\nSur trottoir face batimentn° 34\n" }, "geometry": { "type": "Point", "coordinates": [ 0.359203773661302, 46.587670341260939 ] } },
{ "type": "Feature", "properties": { "gml_id": "F6239__51", "OBJECTID": 51, "Numéro_de_borne": 234, "Volume": 3, "Fréquence_de_la_collecte": "14 jours", "Adresse": "Allée du Parc\nAngle trottoir face batiment n° 24 et 26 Résidence du Grand Parc. Face centre commercial de l'Europe\n" }, "geometry": { "type": "Point", "coordinates": [ 0.351176636203938, 46.590889940207553 ] } },
{ "type": "Feature", "properties": { "gml_id": "F6239__289", "OBJECTID": 289, "Numéro_de_borne": 244, "Volume": 3, "Fréquence_de_la_collecte": "30 jours", "Adresse": "Rue Henri Dunant \/ angle Alphonse Daudet\t\nSur le trottoir face batiment n° 40\n" }, "geometry": { "type": "Point", "coordinates": [ 0.366048447344089, 46.592185061125143 ] } },
{ "type": "Feature", "properties": { "gml_id": "F6239__3857", "OBJECTID": 3857, "Numéro_de_borne": 251, "Volume": 3, "Fréquence_de_la_collecte": "30 jours", "Adresse": "Rue des Couronneries\nSur îlot face batiment n° 31\n" }, "geometry": { "type": "Point", "coordinates": [ 0.359277937925329, 46.590226790576899 ] } },
{ "type": "Feature", "properties": { "gml_id": "F6239__3858", "OBJECTID": 3858, "Numéro_de_borne": 253, "Volume": 3, "Fréquence_de_la_collecte": "30 jours", "Adresse": "Place Coïmbra rue Marcel Paul\tSur trottoir devant la Police Municipal\n" }, "geometry": { "type": "Point", "coordinates": [ 0.360770574702619, 46.588460027191104 ] } },
{ "type": "Feature", "properties": { "gml_id": "F6239__3859", "OBJECTID": 3859, "Numéro_de_borne": 0, "Volume": 2, "Fréquence_de_la_collecte": "0", "Adresse": "Rue de Québec\nDépôt EEV" }, "geometry": { "type": "Point", "coordinates": [ 0.351680234406648, 46.592108079253087 ] } },
{ "type": "Feature", "properties": { "gml_id": "F6239__100", "OBJECTID": 100, "Numéro_de_borne": 452, "Volume": 3, "Fréquence_de_la_collecte": "14 jours", "Adresse": "Rue de Mauroc foyer Val du clain\tPlace de parking (en montant vers chez Quadripack\n" }, "geometry": { "type": "Point", "coordinates": [ 0.342063136356775, 46.5475433697463 ] } },
{ "type": "Feature", "properties": { "gml_id": "F6239__32", "OBJECTID": 32, "Numéro_de_borne": 453, "Volume": 3, "Fréquence_de_la_collecte": "7 jours", "Adresse": "Rue du Hameau du Cherpe\tA côté du cimetière face à Guérin Motteau\n" }, "geometry": { "type": "Point", "coordinates": [ 0.345719287224196, 46.546200982732302 ] } },
{ "type": "Feature", "properties": { "gml_id": "F6239__1921", "OBJECTID": 1921, "Numéro_de_borne": 454, "Volume": 3, "Fréquence_de_la_collecte": "7 jours", "Adresse": "Avenue de Lorch\nEntre le pont de la SNCF et le pont du Clain\n" }, "geometry": { "type": "Point", "coordinates": [ 0.33990649452878, 46.54990214609024 ] } },
{ "type": "Feature", "properties": { "gml_id": "F6239__253", "OBJECTID": 253, "Numéro_de_borne": 460, "Volume": 3, "Fréquence_de_la_collecte": "14 jours", "Adresse": "Rue de Naintré Place des Résistants\nface au restaurant l'Orée des Bois\n" }, "geometry": { "type": "Point", "coordinates": [ 0.32423013799498, 46.549077965762869 ] } },
{ "type": "Feature", "properties": { "gml_id": "F6239__127", "OBJECTID": 127, "Numéro_de_borne": 82, "Volume": 3, "Fréquence_de_la_collecte": "14 jours", "Adresse": "Av. Jacques Cœur\tRésidence Fac et Sport entre n°83 et 85. Devant transformateur EDF\n" }, "geometry": { "type": "Point", "coordinates": [ 0.377824283166531, 46.566366578764196 ] } },
{ "type": "Feature", "properties": { "gml_id": "F6239__2897", "OBJECTID": 2897, "Numéro_de_borne": 88, "Volume": 3, "Fréquence_de_la_collecte": "30 jours", "Adresse": "Rue des Champs Balais\nDevant batiment n°29 \" le studel\"\n" }, "geometry": { "type": "Point", "coordinates": [ 0.371016829630368, 46.568087493464901 ] } },
{ "type": "Feature", "properties": { "gml_id": "F6239__2898", "OBJECTID": 2898, "Numéro_de_borne": 90, "Volume": 3, "Fréquence_de_la_collecte": "14 jours", "Adresse": "Allée de la Chenevière \nsur le parking devant le point de regroupement " }, "geometry": { "type": "Point", "coordinates": [ 0.377852877616567, 46.565773610218393 ] } },
{ "type": "Feature", "properties": { "gml_id": "F6239__45", "OBJECTID": 45, "Numéro_de_borne": 99, "Volume": 4, "Fréquence_de_la_collecte": "14 jours", "Adresse": "Boulevard René Cassin\nSur place des Capétiens dans l'angle face vidéoscope de Beaulieu\n" }, "geometry": { "type": "Point", "coordinates": [ 0.376807534571242, 46.574493146614472 ] } },
{ "type": "Feature", "properties": { "gml_id": "F6239__9601", "OBJECTID": 9601, "Adresse": "Chemin de l'Autoroute", "Observation": "Aire de covoiturage", "Commune": "Jaunay-Marigny" }, "geometry": { "type": "Point", "coordinates": [ 0.363737175621014, 46.684066297156171 ] } },
{ "type": "Feature", "properties": { "gml_id": "F6239__9602", "OBJECTID": 9602, "Adresse": "Chemin de Pourret", "Observation": "Intermarché (n°2)", "Commune": "Jaunay-Marigny" }, "geometry": { "type": "Point", "coordinates": [ 0.37936210298347, 46.699384946762386 ] } },
{ "type": "Feature", "properties": { "gml_id": "F6239__9603", "OBJECTID": 9603, "Adresse": "28 Rue du Petit Bois", "Observation": "Parigny (n°2)", "Commune": "115" }, "geometry": { "type": "Point", "coordinates": [ 0.377934175680339, 46.710787810060069 ] } },
{ "type": "Feature", "properties": { "gml_id": "F6239__9604", "OBJECTID": 9604, "Adresse": "Rue de la Grand'raise", "Observation": "Bellevue (n°2)", "Commune": "Jaunay-Marigny" }, "geometry": { "type": "Point", "coordinates": [ 0.369157242614554, 46.692234094479062 ] } },
{ "type": "Feature", "properties": { "gml_id": "F6239__9605", "OBJECTID": 9605, "Adresse": "39 Rue de Poitiers", "Observation": "n°2", "Commune": "Jaunay-Marigny" }, "geometry": { "type": "Point", "coordinates": [ 0.372806277884226, 46.679123704463798 ] } },
{ "type": "Feature", "properties": { "gml_id": "F6239__9606", "OBJECTID": 9606, "Adresse": "17 Rue Léo Lagrange", "Observation": "Stade", "Commune": "Jaunay-Marigny" }, "geometry": { "type": "Point", "coordinates": [ 0.382723995529359, 46.730489669201063 ] } },
{ "type": "Feature", "properties": { "gml_id": "F6239__9607", "OBJECTID": 9607, "Adresse": "30 Rue des Troglodytes", "Observation": "Les Coteaux", "Commune": "Jaunay-Marigny" }, "geometry": { "type": "Point", "coordinates": [ 0.351333461963023, 46.750124753361739 ] } },
{ "type": "Feature", "properties": { "gml_id": "F6239__9608", "OBJECTID": 9608, "Adresse": "5 Rue Gaston Dribault", "Observation": "Saint Lèger(n°1)", "Commune": "Jaunay-Marigny" }, "geometry": { "type": "Point", "coordinates": [ 0.386349995755787, 46.72168787907615 ] } },
{ "type": "Feature", "properties": { "gml_id": "F6239__9609", "OBJECTID": 9609, "Adresse": "5 Rue Gaston Dribault", "Observation": "Saint Léger (n°2)", "Commune": "Jaunay-Marigny" }, "geometry": { "type": "Point", "coordinates": [ 0.386396866334874, 46.721721106524505 ] } },
{ "type": "Feature", "properties": { "gml_id": "F6239__9610", "OBJECTID": 9610, "Adresse": "6 Rue Jean Arnaud", "Observation": "Salle des fêtes (n°1)", "Commune": "Jaunay-Marigny" }, "geometry": { "type": "Point", "coordinates": [ 0.377499408091834, 46.745314979952383 ] } },
{ "type": "Feature", "properties": { "gml_id": "F6239__9615", "OBJECTID": 9615, "Adresse": "18 Chemin du Moulin du Bois", "Observation": "SNECMA", "Commune": "Jaunay-Marigny" }, "geometry": { "type": "Point", "coordinates": [ 0.400437729185071, 46.717780452164362 ] } },
{ "type": "Feature", "properties": { "gml_id": "F6239__9616", "OBJECTID": 9616, "Adresse": "18 Rue du Chemin du Moulin du Bois", "Observation": "SNECMA", "Commune": "Jaunay-Marigny" }, "geometry": { "type": "Point", "coordinates": [ 0.403140914060135, 46.71781109547598 ] } },
{ "type": "Feature", "properties": { "gml_id": "F6239__9613", "OBJECTID": 9613, "Adresse": "6 Rue Jean Arnaud", "Observation": "Salle des fêtes (n°2)", "Commune": "Jaunay-Marigny" }, "geometry": { "type": "Point", "coordinates": [ 0.377481197415528, 46.745347426238986 ] } },
{ "type": "Feature", "properties": { "gml_id": "F6239__9614", "OBJECTID": 9614, "Adresse": "6 Rue Jean Arnaud", "Observation": "Salle des fêtes (n°3)", "Commune": "Jaunay-Marigny" }, "geometry": { "type": "Point", "coordinates": [ 0.377464784293168, 46.745385630622174 ] } },
{ "type": "Feature", "properties": { "gml_id": "F6239__9921", "OBJECTID": 9921, "Adresse": "22 Rue de l'Eglise", "Observation": "Bourg (derrière l'église)", "Commune": "019" }, "geometry": { "type": "Point", "coordinates": [ 0.442647230313316, 46.719512162032771 ] } },
{ "type": "Feature", "properties": { "gml_id": "F6239__10565", "OBJECTID": 10565, "Numéro_de_borne": 65, "Volume": 3, "Adresse": "parking rue beau site\nmise a jour le 5\/12\/2019\n", "Commune": "194" }, "geometry": { "type": "Point", "coordinates": [ 0.345030009738467, 46.570406428105024 ] } },
{ "type": "Feature", "properties": { "gml_id": "F6239__9922", "OBJECTID": 9922, "Adresse": "27 Rue de la Mairie", "Observation": "Salle des fêtes (n°1)", "Commune": "019" }, "geometry": { "type": "Point", "coordinates": [ 0.456496339527248, 46.715745473083572 ] } },
{ "type": "Feature", "properties": { "gml_id": "F6239__9923", "OBJECTID": 9923, "Adresse": "27 Rue de la Mairie", "Observation": "Salle des fêtes (n°2)", "Commune": "019" }, "geometry": { "type": "Point", "coordinates": [ 0.456539843907103, 46.715777404794345 ] } },
{ "type": "Feature", "properties": { "gml_id": "F6239__9924", "OBJECTID": 9924, "Adresse": "1-2 Rue du Bois de Saint-Jean", "Observation": "Bondilly", "Commune": "019" }, "geometry": { "type": "Point", "coordinates": [ 0.472450993004055, 46.704584082872003 ] } },
{ "type": "Feature", "properties": { "gml_id": "F6239__9925", "OBJECTID": 9925, "Adresse": "34 Rue du Golf", "Observation": "GOLF", "Commune": "019" }, "geometry": { "type": "Point", "coordinates": [ 0.477217536556892, 46.726413287312099 ] } },
{ "type": "Feature", "properties": { "gml_id": "F6239__9926", "OBJECTID": 9926, "Adresse": "22 Rue de la Bourdillière", "Observation": "Centre d'accueuil", "Commune": "019" }, "geometry": { "type": "Point", "coordinates": [ 0.456058383117503, 46.720133170976013 ] } },
{ "type": "Feature", "properties": { "gml_id": "F6239__9927", "OBJECTID": 9927, "Adresse": "45 Voie Romaine", "Observation": "Camping 1", "Commune": "019" }, "geometry": { "type": "Point", "coordinates": [ 0.458872894803984, 46.719314396028601 ] } },
{ "type": "Feature", "properties": { "gml_id": "F6239__9928", "OBJECTID": 9928, "Adresse": "45 Voie Romaine", "Observation": "Camping 2", "Commune": "019" }, "geometry": { "type": "Point", "coordinates": [ 0.45887839271278, 46.719285940540274 ] } },
{ "type": "Feature", "properties": { "gml_id": "F6239__9929", "OBJECTID": 9929, "Adresse": "9 Rue de la Bourdillière", "Observation": "Parc de Saint-Cyr", "Commune": "019" }, "geometry": { "type": "Point", "coordinates": [ 0.455911158251416, 46.72427744220353 ] } },
{ "type": "Feature", "properties": { "gml_id": "F6239__9930", "OBJECTID": 9930, "Adresse": "9 Rue Gilles Grollier", "Observation": "Rue de Denmead 1", "Commune": "222" }, "geometry": { "type": "Point", "coordinates": [ 0.397342911013512, 46.673831653967071 ] } },
{ "type": "Feature", "properties": { "gml_id": "F6239__9931", "OBJECTID": 9931, "Adresse": "9 Rue Gilles Grollier", "Observation": "Rue de Denmead 2", "Commune": "222" }, "geometry": { "type": "Point", "coordinates": [ 0.397413037996773, 46.67381241936944 ] } },
{ "type": "Feature", "properties": { "gml_id": "F6239__9932", "OBJECTID": 9932, "Adresse": "D4", "Observation": "Salle des fêtes", "Commune": "222" }, "geometry": { "type": "Point", "coordinates": [ 0.40816210884613, 46.678714664675759 ] } },
{ "type": "Feature", "properties": { "gml_id": "F6239__9933", "OBJECTID": 9933, "Adresse": "14 Avenue Victor Hugo", "Observation": "Allée des Chardonnerets", "Commune": "222" }, "geometry": { "type": "Point", "coordinates": [ 0.402290766802555, 46.673386611499396 ] } },
{ "type": "Feature", "properties": { "gml_id": "F6239__9934", "OBJECTID": 9934, "Adresse": "3 Place de la Mamot", "Observation": "Salle des fêtes", "Commune": "222" }, "geometry": { "type": "Point", "coordinates": [ 0.402419041849268, 46.668168627552653 ] } },
{ "type": "Feature", "properties": { "gml_id": "F6239__9935", "OBJECTID": 9935, "Adresse": "24 Route de l'Ancienne Ecole", "Observation": "Le Peu", "Commune": "222" }, "geometry": { "type": "Point", "coordinates": [ 0.436394356227736, 46.664359421981544 ] } },
{ "type": "Feature", "properties": { "gml_id": "F6239__9936", "OBJECTID": 9936, "Adresse": "Les Misterlingues", "Observation": "Salle Mérové", "Commune": "222" }, "geometry": { "type": "Point", "coordinates": [ 0.407032375476214, 46.679968289741353 ] } },
{ "type": "Feature", "properties": { "gml_id": "F6239__10241", "OBJECTID": 10241, "Adresse": "D85A", "Observation": "Super U (n°1)", "Commune": "222" }, "geometry": { "type": "Point", "coordinates": [ 0.403948695539538, 46.668426759566543 ] } },
{ "type": "Feature", "properties": { "gml_id": "F6239__10242", "OBJECTID": 10242, "Adresse": "D85A", "Observation": "Super U (n°2)", "Commune": "222" }, "geometry": { "type": "Point", "coordinates": [ 0.403969163884048, 46.668461521416162 ] } },
{ "type": "Feature", "properties": { "gml_id": "F6239__10243", "OBJECTID": 10243, "Adresse": "D85A", "Observation": "Super U (n°3)", "Commune": "222" }, "geometry": { "type": "Point", "coordinates": [ 0.403989355961785, 46.668501993648555 ] } },
{ "type": "Feature", "properties": { "gml_id": "F6239__5441", "OBJECTID": 5441, "Volume": 3, "Adresse": "parking gare" }, "geometry": { "type": "Point", "coordinates": [ 0.373422609812186, 46.65222079702292 ] } },
{ "type": "Feature", "properties": { "gml_id": "F6239__7718", "OBJECTID": 7718, "Commune": "244" }, "geometry": { "type": "Point", "coordinates": [ 0.107435477133941, 46.359504761555918 ] } },
{ "type": "Feature", "properties": { "gml_id": "F6239__7726", "OBJECTID": 7726, "Commune": "139" }, "geometry": { "type": "Point", "coordinates": [ 0.140908880145237, 46.458708654928436 ] } },
{ "type": "Feature", "properties": { "gml_id": "F6239__6401", "OBJECTID": 6401, "Volume": 3, "Fréquence_de_la_collecte": "30 jours", "Observation": "Type Volcano, parking de la Résidence" }, "geometry": { "type": "Point", "coordinates": [ 0.382996224336068, 46.572981557095318 ] } },
{ "type": "Feature", "properties": { "gml_id": "F6239__1937", "OBJECTID": 1937, "Numéro_de_borne": 455, "Volume": 3, "Fréquence_de_la_collecte": "14 jours", "Adresse": "Rue du Hameau de la Chaume\tDerrière Intermarché sur trottoir face lavage automatique\n" }, "geometry": { "type": "Point", "coordinates": [ 0.327234987409336, 46.556002460918599 ] } },
{ "type": "Feature", "properties": { "gml_id": "F6239__1938", "OBJECTID": 1938, "Numéro_de_borne": 456, "Volume": 3, "Fréquence_de_la_collecte": "30 jours", "Adresse": "Stade de la Varenne\nPlace de parking à droite en entrant\n" }, "geometry": { "type": "Point", "coordinates": [ 0.322673263323759, 46.557639886304372 ] } },
{ "type": "Feature", "properties": { "gml_id": "F6239__138", "OBJECTID": 138, "Numéro_de_borne": 457, "Volume": 3, "Fréquence_de_la_collecte": "7 jours", "Adresse": "Route de Ligugé face rue du Bois d'amour\t\nSur trottoir à côté de la Pharmacie\n" }, "geometry": { "type": "Point", "coordinates": [ 0.319334535684194, 46.553493522659188 ] } },
{ "type": "Feature", "properties": { "gml_id": "F6239__182", "OBJECTID": 182, "Numéro_de_borne": 465, "Volume": 3, "Fréquence_de_la_collecte": "7 jours", "Adresse": "Chemin de la Cadoullère direction Flée\nEntrée de l'Abbaye St Croix\n" }, "geometry": { "type": "Point", "coordinates": [ 0.354556352285075, 46.541088432532554 ] } },
{ "type": "Feature", "properties": { "gml_id": "F6239__208", "OBJECTID": 208, "Numéro_de_borne": 466, "Volume": 3, "Fréquence_de_la_collecte": "7 jours", "Adresse": "Rue d'Artimon (Grand Large)\tDerrière magasin \"les couleurs du temps\" vers GO SPORT\n" }, "geometry": { "type": "Point", "coordinates": [ 0.360315456785433, 46.563242211100871 ] } },
{ "type": "Feature", "properties": { "gml_id": "F6239__117", "OBJECTID": 117, "Numéro_de_borne": 18, "Volume": 3, "Fréquence_de_la_collecte": "14 jours", "Adresse": "Rue Jean Macé\nFace au n°27 (attention au stationnement)\n" }, "geometry": { "type": "Point", "coordinates": [ 0.34205266335407, 46.588306428227831 ] } },
{ "type": "Feature", "properties": { "gml_id": "F6239__1939", "OBJECTID": 1939, "Numéro_de_borne": 23, "Volume": 3, "Fréquence_de_la_collecte": "14 jours", "Adresse": "Rue de la Marne\nAngle rue Petonnet\n" }, "geometry": { "type": "Point", "coordinates": [ 0.338840295645879, 46.582230479472749 ] } },
{ "type": "Feature", "properties": { "gml_id": "F6239__6417", "OBJECTID": 6417, "Volume": 3, "Fréquence_de_la_collecte": "30 jours", "Adresse": "53 Rue du haut des sables" }, "geometry": { "type": "Point", "coordinates": [ 0.341253498476485, 46.572242900854135 ] } },
{ "type": "Feature", "properties": { "gml_id": "F6239__6097", "OBJECTID": 6097, "Numéro_de_borne": 71, "Volume": 3, "Fréquence_de_la_collecte": "14 jours", "Adresse": "rue Louis ARAGON", "Observation": "Précisions localisation à venir.", "Jour_de_la_collecte": "jeudi" }, "geometry": { "type": "Point", "coordinates": [ 0.333563070268236, 46.567479810951546 ] } },
{ "type": "Feature", "properties": { "gml_id": "F6239__6098", "OBJECTID": 6098, "Numéro_de_borne": 361, "Volume": 3, "Fréquence_de_la_collecte": "14 jours", "Adresse": "Sur parking \"rue du stade\", à côté du Complexe Sportif des ECLUZELLES.", "Jour_de_la_collecte": "mardi" }, "geometry": { "type": "Point", "coordinates": [ 0.37777127923403, 46.65715850889719 ] } },
{ "type": "Feature", "properties": { "gml_id": "F6239__6099", "OBJECTID": 6099, "Numéro_de_borne": 441, "Volume": 3, "Fréquence_de_la_collecte": "30 jours", "Adresse": "Parking de la \"Maison de la Forêt\", lieu-dit \"Grand Recoin\".", "Jour_de_la_collecte": "mardi" }, "geometry": { "type": "Point", "coordinates": [ 0.490004559971719, 46.632072718062105 ] } },
{ "type": "Feature", "properties": { "gml_id": "F6239__6100", "OBJECTID": 6100, "Numéro_de_borne": 442, "Volume": 3, "Fréquence_de_la_collecte": "14 jours", "Adresse": "Angle rues des geais & des loriots.", "Jour_de_la_collecte": "mardi" }, "geometry": { "type": "Point", "coordinates": [ 0.43506495450122, 46.622878043997183 ] } },
{ "type": "Feature", "properties": { "gml_id": "F6239__6101", "OBJECTID": 6101, "Numéro_de_borne": 15, "Volume": 3, "Fréquence_de_la_collecte": "7 jours", "Jour_de_la_collecte": "vendredi" }, "geometry": { "type": "Point", "coordinates": [ 0.341388100179802, 46.580414096822423 ] } },
{ "type": "Feature", "properties": { "gml_id": "F6239__6102", "OBJECTID": 6102, "Volume": 3, "Fréquence_de_la_collecte": "7 jours", "Adresse": "Angle rues Riffault & Mgr Augouard, devant Trésorerie.", "Jour_de_la_collecte": "vendredi" }, "geometry": { "type": "Point", "coordinates": [ 0.346356568376357, 46.583742136451832 ] } },
{ "type": "Feature", "properties": { "gml_id": "F6239__6104", "OBJECTID": 6104, "Volume": 3, "Fréquence_de_la_collecte": "7 jours", "Adresse": "Sur parking \"rue du jardin des plantes\", accés \"voie André Malraux\".", "Jour_de_la_collecte": "vendredi" }, "geometry": { "type": "Point", "coordinates": [ 0.348821524258463, 46.587206931111673 ] } },
{ "type": "Feature", "properties": { "gml_id": "F6239__6105", "OBJECTID": 6105, "Volume": 3, "Fréquence_de_la_collecte": "7 jours", "Adresse": "Entrée TAP.", "Jour_de_la_collecte": "vendredi" }, "geometry": { "type": "Point", "coordinates": [ 0.338455520852343, 46.583343986686188 ] } },
{ "type": "Feature", "properties": { "gml_id": "F6239__6081", "OBJECTID": 6081, "Numéro_de_borne": 70, "Volume": 3, "Fréquence_de_la_collecte": "14 jours", "Adresse": "rue Fernand LEGER", "Observation": "Précisions localisation à venir.", "Jour_de_la_collecte": "jeudi" }, "geometry": { "type": "Point", "coordinates": [ 0.332859821685653, 46.568293959100636 ] } },
{ "type": "Feature", "properties": { "gml_id": "F6239__6083", "OBJECTID": 6083, "Numéro_de_borne": 327, "Volume": 3, "Fréquence_de_la_collecte": "30 jours", "Adresse": "\"rue de la richardière\"", "Observation": "Précision localisation à venir.", "Jour_de_la_collecte": "mardi" }, "geometry": { "type": "Point", "coordinates": [ 0.403129476810553, 46.621746200784763 ] } },
{ "type": "Feature", "properties": { "gml_id": "F6239__6084", "OBJECTID": 6084, "Numéro_de_borne": 167, "Volume": 3, "Fréquence_de_la_collecte": "14 jours", "Adresse": "Précisions localisation à venir.", "Jour_de_la_collecte": "lundi" }, "geometry": { "type": "Point", "coordinates": [ 0.330820530734471, 46.602980907222033 ] } },
{ "type": "Feature", "properties": { "gml_id": "F6239__6085", "OBJECTID": 6085, "Numéro_de_borne": 170, "Volume": 3, "Fréquence_de_la_collecte": "14 jours", "Adresse": "Rue Léopold Sedar SENGHOR, prés centre commercial de Montmidi.", "Observation": "Précisions localisation à venir.", "Jour_de_la_collecte": "lundi" }, "geometry": { "type": "Point", "coordinates": [ 0.316128576601261, 46.583594815301836 ] } },
{ "type": "Feature", "properties": { "gml_id": "F6239__6086", "OBJECTID": 6086, "Numéro_de_borne": 137, "Volume": 3, "Fréquence_de_la_collecte": "14 jours", "Adresse": "Angle chemin rural \/ rue de Géniec.", "Jour_de_la_collecte": "vendredi" }, "geometry": { "type": "Point", "coordinates": [ 0.399719787644588, 46.578583701737514 ] } },
{ "type": "Feature", "properties": { "gml_id": "F6239__6087", "OBJECTID": 6087, "Volume": 3, "Fréquence_de_la_collecte": "7 jours", "Adresse": "Sur place de parking devant entrées CROUS \/ Université.", "Jour_de_la_collecte": "vendredi" }, "geometry": { "type": "Point", "coordinates": [ 0.345984264050001, 46.587942734428466 ] } },
{ "type": "Feature", "properties": { "gml_id": "F6239__6088", "OBJECTID": 6088, "Volume": 3, "Fréquence_de_la_collecte": "7 jours", "Adresse": "Entrée rue Thibaudeau.", "Jour_de_la_collecte": "vendredi" }, "geometry": { "type": "Point", "coordinates": [ 0.336114651435811, 46.582909793895624 ] } },
{ "type": "Feature", "properties": { "gml_id": "F6239__8321", "OBJECTID": 8321, "Observation": "COLONNESN°262 - 86260 LA PUYE", "Commune": "202" }, "geometry": { "type": "Point", "coordinates": [ 0.749216710523241, 46.640749992172921 ] } },
{ "type": "Feature", "properties": { "gml_id": "F6239__8322", "OBJECTID": 8322, "Observation": "COLONNESN°263 - 86260 LA PUYE", "Commune": "202" }, "geometry": { "type": "Point", "coordinates": [ 0.749199983337745, 46.640750021075448 ] } },
{ "type": "Feature", "properties": { "gml_id": "F6239__8323", "OBJECTID": 8323, "Observation": "COLONNESN°264 - 86260 LA PUYE", "Commune": "202" }, "geometry": { "type": "Point", "coordinates": [ 0.717883378439625, 46.648966653760965 ] } },
{ "type": "Feature", "properties": { "gml_id": "F6239__8324", "OBJECTID": 8324, "Observation": "COLONNESN°268 - 86300 CHAUVIGNY", "Commune": "Chauvigny" }, "geometry": { "type": "Point", "coordinates": [ 0.694649942553899, 46.518216694806767 ] } },
{ "type": "Feature", "properties": { "gml_id": "F6239__8325", "OBJECTID": 8325, "Observation": "COLONNESN°270 - 86300 SAINTE RADEGONDE", "Commune": "239" }, "geometry": { "type": "Point", "coordinates": [ 0.702516702002228, 46.635783292551849 ] } },
{ "type": "Feature", "properties": { "gml_id": "F6239__8326", "OBJECTID": 8326, "Observation": "COLONNESN°279 - 86800 JARDRES", "Commune": "114" }, "geometry": { "type": "Point", "coordinates": [ 0.55738337393072, 46.571916682961898 ] } },
{ "type": "Feature", "properties": { "gml_id": "F6239__8327", "OBJECTID": 8327, "Observation": "COLONNESN°280 - 86800 JARDRES", "Commune": "114" }, "geometry": { "type": "Point", "coordinates": [ 0.55798336794571, 46.57443331981915 ] } },
{ "type": "Feature", "properties": { "gml_id": "F6239__8328", "OBJECTID": 8328, "Observation": "COLONNESN°281 - 86800 JARDRES", "Commune": "114" }, "geometry": { "type": "Point", "coordinates": [ 0.565048203641786, 46.568174876932524 ] } },
{ "type": "Feature", "properties": { "gml_id": "F6239__8329", "OBJECTID": 8329, "Observation": "COLONNESN°282 - 86800 JARDRES", "Commune": "114" }, "geometry": { "type": "Point", "coordinates": [ 0.565091022830602, 46.568173884268255 ] } },
{ "type": "Feature", "properties": { "gml_id": "F6239__8330", "OBJECTID": 8330, "Observation": "COLONNESN°283 - 86800 JARDRES", "Commune": "114" }, "geometry": { "type": "Point", "coordinates": [ 0.565122626985048, 46.568175628539521 ] } },
{ "type": "Feature", "properties": { "gml_id": "F6239__8331", "OBJECTID": 8331, "Observation": "COLONNESN°284 - 86800 JARDRES", "Commune": "114" }, "geometry": { "type": "Point", "coordinates": [ 0.612716619916107, 46.559866633828221 ] } },
{ "type": "Feature", "properties": { "gml_id": "F6239__8332", "OBJECTID": 8332, "Observation": "COLONNESN°285 - 86300 CHAUVIGNY", "Commune": "Chauvigny" }, "geometry": { "type": "Point", "coordinates": [ 0.634744097433613, 46.56941925385064 ] } },
{ "type": "Feature", "properties": { "gml_id": "F6239__8333", "OBJECTID": 8333, "Observation": "COLONNESN°286 - 86300 CHAUVIGNY", "Commune": "Chauvigny" }, "geometry": { "type": "Point", "coordinates": [ 0.630483266986798, 46.563233364397526 ] } },
{ "type": "Feature", "properties": { "gml_id": "F6239__8334", "OBJECTID": 8334, "Observation": "COLONNESN°287 - 86300 CHAUVIGNY", "Commune": "Chauvigny" }, "geometry": { "type": "Point", "coordinates": [ 0.629116696422973, 46.560416667964859 ] } },
{ "type": "Feature", "properties": { "gml_id": "F6239__8335", "OBJECTID": 8335, "Observation": "COLONNESN°288 - 86300 CHAUVIGNY", "Commune": "Chauvigny" }, "geometry": { "type": "Point", "coordinates": [ 0.629149970784889, 46.560416642754646 ] } },
{ "type": "Feature", "properties": { "gml_id": "F6239__8336", "OBJECTID": 8336, "Observation": "COLONNESN°289 - 86300 CHAUVIGNY", "Commune": "Chauvigny" }, "geometry": { "type": "Point", "coordinates": [ 0.628916672353793, 46.560250032163772 ] } },
{ "type": "Feature", "properties": { "gml_id": "F6239__8337", "OBJECTID": 8337, "Observation": "COLONNESN°290 - 86300 CHAUVIGNY", "Commune": "Chauvigny" }, "geometry": { "type": "Point", "coordinates": [ 0.628933374665266, 46.560250020950427 ] } },
{ "type": "Feature", "properties": { "gml_id": "F6239__8338", "OBJECTID": 8338, "Observation": "COLONNESN°291 - 86300 CHAUVIGNY", "Commune": "Chauvigny" }, "geometry": { "type": "Point", "coordinates": [ 0.644064812782597, 46.568665379058586 ] } },
{ "type": "Feature", "properties": { "gml_id": "F6239__8339", "OBJECTID": 8339, "Observation": "COLONNESN°292 - 86300 CHAUVIGNY", "Commune": "Chauvigny" }, "geometry": { "type": "Point", "coordinates": [ 0.644044625269048, 46.568615475871844 ] } },
{ "type": "Feature", "properties": { "gml_id": "F6239__8340", "OBJECTID": 8340, "Observation": "COLONNESN°293 - 86300 CHAUVIGNY", "Commune": "Chauvigny" }, "geometry": { "type": "Point", "coordinates": [ 0.646733320892003, 46.567300013116913 ] } },
{ "type": "Feature", "properties": { "gml_id": "F6239__8341", "OBJECTID": 8341, "Observation": "COLONNESN°294 - 86300 CHAUVIGNY", "Commune": "Chauvigny" }, "geometry": { "type": "Point", "coordinates": [ 0.65354995140263, 46.570883367468504 ] } },
{ "type": "Feature", "properties": { "gml_id": "F6239__8342", "OBJECTID": 8342, "Observation": "COLONNESN°295 - 86300 CHAUVIGNY", "Commune": "Chauvigny" }, "geometry": { "type": "Point", "coordinates": [ 0.611600049653927, 46.579750006109315 ] } },
{ "type": "Feature", "properties": { "gml_id": "F6239__8343", "OBJECTID": 8343, "Observation": "COLONNESN°296 - 86300 CHAUVIGNY", "Commune": "Chauvigny" }, "geometry": { "type": "Point", "coordinates": [ 0.646866632555986, 46.564683293715198 ] } },
{ "type": "Feature", "properties": { "gml_id": "F6239__8344", "OBJECTID": 8344, "Observation": "COLONNESN°297 - 86300 CHAUVIGNY", "Commune": "Chauvigny" }, "geometry": { "type": "Point", "coordinates": [ 0.641899962551392, 46.580949975385714 ] } },
{ "type": "Feature", "properties": { "gml_id": "F6239__8345", "OBJECTID": 8345, "Observation": "COLONNESN°298 - 86300 CHAUVIGNY", "Commune": "Chauvigny" }, "geometry": { "type": "Point", "coordinates": [ 0.659300048226784, 46.53584996457996 ] } },
{ "type": "Feature", "properties": { "gml_id": "F6239__8346", "OBJECTID": 8346, "Observation": "COLONNESN°299 - 86300 CHAUVIGNY", "Commune": "Chauvigny" }, "geometry": { "type": "Point", "coordinates": [ 0.659266658695735, 46.535849995935912 ] } },
{ "type": "Feature", "properties": { "gml_id": "F6239__8347", "OBJECTID": 8347, "Observation": "COLONNESN°300 - 86300 CHAUVIGNY", "Commune": "Chauvigny" }, "geometry": { "type": "Point", "coordinates": [ 0.658983396969461, 46.583516645467185 ] } },
{ "type": "Feature", "properties": { "gml_id": "F6239__8348", "OBJECTID": 8348, "Observation": "COLONNESN°301 - 86300 CHAUVIGNY", "Commune": "Chauvigny" }, "geometry": { "type": "Point", "coordinates": [ 0.710150005274203, 46.570283346642682 ] } },
{ "type": "Feature", "properties": { "gml_id": "F6239__8349", "OBJECTID": 8349, "Observation": "COLONNESN°302 - 86300 CHAUVIGNY", "Commune": "Chauvigny" }, "geometry": { "type": "Point", "coordinates": [ 0.6980333480969, 46.57598330733007 ] } },
{ "type": "Feature", "properties": { "gml_id": "F6239__126", "OBJECTID": 126, "Numéro_de_borne": 198, "Volume": 3, "Fréquence_de_la_collecte": "7 jours", "Adresse": "Angle rue de Chaumont et rue de Beaupierre\nSur trottoir avant RN 10 après le stop sur la gauche\n" }, "geometry": { "type": "Point", "coordinates": [ 0.304498477913282, 46.556714449525252 ] } },
{ "type": "Feature", "properties": { "gml_id": "F6239__235", "OBJECTID": 235, "Numéro_de_borne": 109, "Volume": 3, "Fréquence_de_la_collecte": "7 jours", "Adresse": "Rue Pierre Loti\nSur place en stabilisé" }, "geometry": { "type": "Point", "coordinates": [ 0.307882468474924, 46.563897065707877 ] } },
{ "type": "Feature", "properties": { "gml_id": "F6239__200", "OBJECTID": 200, "Numéro_de_borne": 202, "Volume": 3, "Fréquence_de_la_collecte": "14 jours", "Adresse": "Angle rue Jean Valade et rue Michel Colucchi\nVers ancien centre commercial\n" }, "geometry": { "type": "Point", "coordinates": [ 0.310477454536185, 46.56806608287468 ] } },
{ "type": "Feature", "properties": { "gml_id": "F6239__1601", "OBJECTID": 1601, "Numéro_de_borne": 208, "Volume": 3, "Fréquence_de_la_collecte": "0", "Adresse": "Boulevard Georges Clémenceau" }, "geometry": { "type": "Point", "coordinates": [ 0.312649781937907, 46.571020254548074 ] } },
{ "type": "Feature", "properties": { "gml_id": "F6239__221", "OBJECTID": 221, "Numéro_de_borne": 0, "Volume": 3, "Fréquence_de_la_collecte": "0", "Adresse": "Angle rue de Saubredac et rue de la Boivre", "Commune": "024" }, "geometry": { "type": "Point", "coordinates": [ 0.176342534667962, 46.557696970787056 ] } },
{ "type": "Feature", "properties": { "gml_id": "F6239__6737", "OBJECTID": 6737, "Adresse": "Rue des Entrepreneurs\nBuxerolles" }, "geometry": { "type": "Point", "coordinates": [ 0.37703938236491, 46.601806745769018 ] } },
{ "type": "Feature", "properties": { "gml_id": "F6239__6738", "OBJECTID": 6738, "Adresse": "Rue des Bergeronnettes \/ Rue du Pic Vert" }, "geometry": { "type": "Point", "coordinates": [ 0.370958695813643, 46.592568595314475 ] } },
{ "type": "Feature", "properties": { "gml_id": "F6239__6721", "OBJECTID": 6721, "Volume": 3, "Adresse": "Rue des buis\nBuxerolles" }, "geometry": { "type": "Point", "coordinates": [ 0.363200019253704, 46.614255853403428 ] } },
{ "type": "Feature", "properties": { "gml_id": "F6239__6722", "OBJECTID": 6722, "Volume": 3, "Fréquence_de_la_collecte": "7 jours", "Adresse": "Rue Hippolyte Véron\nSur le parking du LIDL" }, "geometry": { "type": "Point", "coordinates": [ 0.365939454345668, 46.612336180862961 ] } },
{ "type": "Feature", "properties": { "gml_id": "F6239__6723", "OBJECTID": 6723, "Adresse": "Route l'Ormeau" }, "geometry": { "type": "Point", "coordinates": [ 0.366731997095323, 46.604385001079848 ] } },
{ "type": "Feature", "properties": { "gml_id": "F6239__15", "OBJECTID": 15, "Numéro_de_borne": 204, "Volume": 3, "Fréquence_de_la_collecte": "30 jours", "Adresse": "Av. du 8 mai 1945\t\nTrottoir avant arrêt de bus (opposé au n°106). Parking intermarché (en allant sur la gare)\n" }, "geometry": { "type": "Point", "coordinates": [ 0.311530096740765, 46.558397993160128 ] } },
{ "type": "Feature", "properties": { "gml_id": "F6239__7681", "OBJECTID": 7681, "Adresse": "Herbord", "Commune": "253" }, "geometry": { "type": "Point", "coordinates": [ -0.021495473033559, 46.508593065623216 ] } },
{ "type": "Feature", "properties": { "gml_id": "F6239__7682", "OBJECTID": 7682, "Adresse": "Salle des fêtes", "Commune": "253" }, "geometry": { "type": "Point", "coordinates": [ -0.004926526394328, 46.494140062233441 ] } },
{ "type": "Feature", "properties": { "gml_id": "F6239__7683", "OBJECTID": 7683, "Adresse": "Stade", "Commune": "253" }, "geometry": { "type": "Point", "coordinates": [ -0.011288312788228, 46.493799847726976 ] } },
{ "type": "Feature", "properties": { "gml_id": "F6239__7684", "OBJECTID": 7684, "Adresse": "Salle des associations", "Commune": "253" }, "geometry": { "type": "Point", "coordinates": [ -0.007208993640975, 46.490293172945861 ] } },
{ "type": "Feature", "properties": { "gml_id": "F6239__7685", "OBJECTID": 7685, "Adresse": "Parking du cimetière", "Commune": "253" }, "geometry": { "type": "Point", "coordinates": [ -0.005591937178357, 46.496961758984071 ] } },
{ "type": "Feature", "properties": { "gml_id": "F6239__7686", "OBJECTID": 7686, "Commune": "091" }, "geometry": { "type": "Point", "coordinates": [ 0.036951245667412, 46.496200967950585 ] } },
{ "type": "Feature", "properties": { "gml_id": "F6239__7687", "OBJECTID": 7687, "Commune": "091" }, "geometry": { "type": "Point", "coordinates": [ 0.043439150991527, 46.48941119361205 ] } },
{ "type": "Feature", "properties": { "gml_id": "F6239__7688", "OBJECTID": 7688, "Commune": "091" }, "geometry": { "type": "Point", "coordinates": [ 0.047997351317094, 46.490872465306964 ] } },
{ "type": "Feature", "properties": { "gml_id": "F6239__7689", "OBJECTID": 7689, "Commune": "091" }, "geometry": { "type": "Point", "coordinates": [ 0.021692023231174, 46.473981488154038 ] } },
{ "type": "Feature", "properties": { "gml_id": "F6239__7690", "OBJECTID": 7690, "Commune": "091" }, "geometry": { "type": "Point", "coordinates": [ 0.061018339017339, 46.491530294220027 ] } },
{ "type": "Feature", "properties": { "gml_id": "F6239__7691", "OBJECTID": 7691, "Commune": "116" }, "geometry": { "type": "Point", "coordinates": [ 0.068722862418509, 46.459967829409756 ] } },
{ "type": "Feature", "properties": { "gml_id": "F6239__7692", "OBJECTID": 7692, "Commune": "116" }, "geometry": { "type": "Point", "coordinates": [ 0.068415986591636, 46.465823483378003 ] } },
{ "type": "Feature", "properties": { "gml_id": "F6239__7693", "OBJECTID": 7693, "Commune": "116" }, "geometry": { "type": "Point", "coordinates": [ 0.080278423210701, 46.480347668672657 ] } },
{ "type": "Feature", "properties": { "gml_id": "F6239__7694", "OBJECTID": 7694, "Commune": "116" }, "geometry": { "type": "Point", "coordinates": [ 0.058664109637673, 46.44128760861507 ] } },
{ "type": "Feature", "properties": { "gml_id": "F6239__7695", "OBJECTID": 7695, "Commune": "083" }, "geometry": { "type": "Point", "coordinates": [ 0.18700306911745, 46.511443851475342 ] } },
{ "type": "Feature", "properties": { "gml_id": "F6239__7696", "OBJECTID": 7696, "Commune": "083" }, "geometry": { "type": "Point", "coordinates": [ 0.16829136312063, 46.495217202811119 ] } },
{ "type": "Feature", "properties": { "gml_id": "F6239__7697", "OBJECTID": 7697, "Commune": "083" }, "geometry": { "type": "Point", "coordinates": [ 0.154079055489581, 46.489553526098632 ] } },
{ "type": "Feature", "properties": { "gml_id": "F6239__7698", "OBJECTID": 7698, "Commune": "083" }, "geometry": { "type": "Point", "coordinates": [ 0.18906689032501, 46.486413002642699 ] } },
{ "type": "Feature", "properties": { "gml_id": "F6239__7699", "OBJECTID": 7699, "Commune": "083" }, "geometry": { "type": "Point", "coordinates": [ 0.184498811073338, 46.485334636594587 ] } },
{ "type": "Feature", "properties": { "gml_id": "F6239__7700", "OBJECTID": 7700, "Commune": "083" }, "geometry": { "type": "Point", "coordinates": [ 0.165684409385198, 46.444318020769543 ] } },
{ "type": "Feature", "properties": { "gml_id": "F6239__7701", "OBJECTID": 7701, "Commune": "083" }, "geometry": { "type": "Point", "coordinates": [ 0.175193215790271, 46.443288647127247 ] } },
{ "type": "Feature", "properties": { "gml_id": "F6239__7702", "OBJECTID": 7702, "Commune": "083" }, "geometry": { "type": "Point", "coordinates": [ 0.179568813039658, 46.450133102957381 ] } },
{ "type": "Feature", "properties": { "gml_id": "F6239__7703", "OBJECTID": 7703, "Commune": "045" }, "geometry": { "type": "Point", "coordinates": [ 0.187887451912266, 46.427155504314577 ] } },
{ "type": "Feature", "properties": { "gml_id": "F6239__7704", "OBJECTID": 7704, "Commune": "045" }, "geometry": { "type": "Point", "coordinates": [ 0.184211050057705, 46.420753730018909 ] } },
{ "type": "Feature", "properties": { "gml_id": "F6239__7705", "OBJECTID": 7705, "Commune": "045" }, "geometry": { "type": "Point", "coordinates": [ 0.191121777985108, 46.42300269614389 ] } },
{ "type": "Feature", "properties": { "gml_id": "F6239__7706", "OBJECTID": 7706, "Commune": "045" }, "geometry": { "type": "Point", "coordinates": [ 0.206394502997595, 46.401813450168007 ] } },
{ "type": "Feature", "properties": { "gml_id": "F6239__7707", "OBJECTID": 7707, "Commune": "045" }, "geometry": { "type": "Point", "coordinates": [ 0.153042439054724, 46.397005029942335 ] } },
{ "type": "Feature", "properties": { "gml_id": "F6239__7708", "OBJECTID": 7708, "Commune": "045" }, "geometry": { "type": "Point", "coordinates": [ 0.176735888952833, 46.371595257186755 ] } },
{ "type": "Feature", "properties": { "gml_id": "F6239__7709", "OBJECTID": 7709, "Commune": "244" }, "geometry": { "type": "Point", "coordinates": [ 0.054825989028867, 46.357075581734293 ] } },
{ "type": "Feature", "properties": { "gml_id": "F6239__7710", "OBJECTID": 7710, "Commune": "244" }, "geometry": { "type": "Point", "coordinates": [ 0.056664232972771, 46.358526813835638 ] } },
{ "type": "Feature", "properties": { "gml_id": "F6239__7711", "OBJECTID": 7711, "Commune": "244" }, "geometry": { "type": "Point", "coordinates": [ 0.072490524455215, 46.370685667978954 ] } },
{ "type": "Feature", "properties": { "gml_id": "F6239__7712", "OBJECTID": 7712, "Commune": "244" }, "geometry": { "type": "Point", "coordinates": [ 0.088853413327079, 46.382297976025875 ] } },
{ "type": "Feature", "properties": { "gml_id": "F6239__7713", "OBJECTID": 7713, "Commune": "244" }, "geometry": { "type": "Point", "coordinates": [ 0.061012188000434, 46.380872849720916 ] } },
{ "type": "Feature", "properties": { "gml_id": "F6239__7714", "OBJECTID": 7714, "Commune": "244" }, "geometry": { "type": "Point", "coordinates": [ 0.101868912277341, 46.396281562384104 ] } },
{ "type": "Feature", "properties": { "gml_id": "F6239__7715", "OBJECTID": 7715, "Commune": "244" }, "geometry": { "type": "Point", "coordinates": [ 0.096992849183487, 46.374332811410461 ] } },
{ "type": "Feature", "properties": { "gml_id": "F6239__7716", "OBJECTID": 7716, "Commune": "244" }, "geometry": { "type": "Point", "coordinates": [ 0.08780564379221, 46.345428773526372 ] } },
{ "type": "Feature", "properties": { "gml_id": "F6239__7717", "OBJECTID": 7717, "Commune": "244" }, "geometry": { "type": "Point", "coordinates": [ 0.100045760229251, 46.34071060815085 ] } },
{ "type": "Feature", "properties": { "gml_id": "F6239__7719", "OBJECTID": 7719, "Commune": "244" }, "geometry": { "type": "Point", "coordinates": [ 0.069507549078329, 46.311615007049923 ] } },
{ "type": "Feature", "properties": { "gml_id": "F6239__7720", "OBJECTID": 7720, "Commune": "139" }, "geometry": { "type": "Point", "coordinates": [ 0.114685127266145, 46.428990084607065 ] } },
{ "type": "Feature", "properties": { "gml_id": "F6239__7721", "OBJECTID": 7721, "Commune": "139" }, "geometry": { "type": "Point", "coordinates": [ 0.114129542217101, 46.433483536743054 ] } },
{ "type": "Feature", "properties": { "gml_id": "F6239__7722", "OBJECTID": 7722, "Commune": "139" }, "geometry": { "type": "Point", "coordinates": [ 0.121163629243298, 46.43547682605498 ] } },
{ "type": "Feature", "properties": { "gml_id": "F6239__7723", "OBJECTID": 7723, "Commune": "139" }, "geometry": { "type": "Point", "coordinates": [ 0.115142787962532, 46.440300285680046 ] } },
{ "type": "Feature", "properties": { "gml_id": "F6239__7724", "OBJECTID": 7724, "Commune": "139" }, "geometry": { "type": "Point", "coordinates": [ 0.126286292357528, 46.436625516585494 ] } },
{ "type": "Feature", "properties": { "gml_id": "F6239__7725", "OBJECTID": 7725, "Commune": "139" }, "geometry": { "type": "Point", "coordinates": [ 0.132940513436093, 46.435615582207035 ] } },
{ "type": "Feature", "properties": { "gml_id": "F6239__7727", "OBJECTID": 7727, "Commune": "139" }, "geometry": { "type": "Point", "coordinates": [ 0.129753669301009, 46.437499361043812 ] } },
{ "type": "Feature", "properties": { "gml_id": "F6239__7728", "OBJECTID": 7728, "Commune": "213" }, "geometry": { "type": "Point", "coordinates": [ 0.041728175933867, 46.419343067960774 ] } },
{ "type": "Feature", "properties": { "gml_id": "F6239__7729", "OBJECTID": 7729, "Commune": "213" }, "geometry": { "type": "Point", "coordinates": [ 0.051084646570309, 46.391097077088652 ] } },
{ "type": "Feature", "properties": { "gml_id": "F6239__7730", "OBJECTID": 7730, "Commune": "213" }, "geometry": { "type": "Point", "coordinates": [ 0.072978375764381, 46.400815962676923 ] } },
{ "type": "Feature", "properties": { "gml_id": "F6239__7731", "OBJECTID": 7731, "Commune": "213" }, "geometry": { "type": "Point", "coordinates": [ 0.037373647731286, 46.420241673808029 ] } },
{ "type": "Feature", "properties": { "gml_id": "F6239__7732", "OBJECTID": 7732, "Commune": "213" }, "geometry": { "type": "Point", "coordinates": [ 0.042407740787211, 46.418148711158587 ] } },
{ "type": "Feature", "properties": { "gml_id": "F6239__7733", "OBJECTID": 7733, "Commune": "213" }, "geometry": { "type": "Point", "coordinates": [ 0.013428877263018, 46.41183484274579 ] } },
{ "type": "Feature", "properties": { "gml_id": "F6239__7734", "OBJECTID": 7734, "Commune": "213" }, "geometry": { "type": "Point", "coordinates": [ 0.033921932107463, 46.421890546636959 ] } },
{ "type": "Feature", "properties": { "gml_id": "F6239__7735", "OBJECTID": 7735, "Commune": "213" }, "geometry": { "type": "Point", "coordinates": [ 0.04112630454543, 46.420730979397142 ] } },
{ "type": "Feature", "properties": { "gml_id": "F6239__7736", "OBJECTID": 7736, "Commune": "139" }, "geometry": { "type": "Point", "coordinates": [ 0.077958129298298, 46.421083652512891 ] } },
{ "type": "Feature", "properties": { "gml_id": "F6239__7737", "OBJECTID": 7737, "Commune": "213" }, "geometry": { "type": "Point", "coordinates": [ 0.028095246660863, 46.45951668804814 ] } },
{ "type": "Feature", "properties": { "gml_id": "F6239__7738", "OBJECTID": 7738, "Commune": "213" }, "geometry": { "type": "Point", "coordinates": [ 0.00293543997867, 46.463316434978253 ] } },
{ "type": "Feature", "properties": { "gml_id": "F6239__7739", "OBJECTID": 7739, "Commune": "213" }, "geometry": { "type": "Point", "coordinates": [ -0.008049268183901, 46.419501431414218 ] } },
{ "type": "Feature", "properties": { "gml_id": "F6239__7740", "OBJECTID": 7740, "Commune": "213" }, "geometry": { "type": "Point", "coordinates": [ 0.024326074412649, 46.438600006641373 ] } },
{ "type": "Feature", "properties": { "gml_id": "F6239__7741", "OBJECTID": 7741, "Commune": "116" }, "geometry": { "type": "Point", "coordinates": [ 0.071215572012035, 46.464285828667563 ] } },
{ "type": "Feature", "properties": { "gml_id": "F6239__4801", "OBJECTID": 4801, "Numéro_de_borne": 806, "Volume": 0, "Fréquence_de_la_collecte": "7 jours", "Adresse": "Rue de la gare, après le pont SNCF sur la droite", "Commune": "Ligugé" }, "geometry": { "type": "Point", "coordinates": [ 0.332933721933353, 46.519731421978975 ] } },
{ "type": "Feature", "properties": { "gml_id": "F6239__4802", "OBJECTID": 4802, "Numéro_de_borne": 810, "Volume": 0, "Fréquence_de_la_collecte": "7 jours", "Adresse": "Rue Clément Péruchon, en descendant sur la grande rue.\nMaison des associations", "Commune": "Ligugé" }, "geometry": { "type": "Point", "coordinates": [ 0.328504012673281, 46.516817648360778 ] } },
{ "type": "Feature", "properties": { "gml_id": "F6239__4803", "OBJECTID": 4803, "Numéro_de_borne": 800, "Volume": 0, "Fréquence_de_la_collecte": "30 jours", "Adresse": "Les Lorgères\nRésidence avant la mutuelle sur la route de Ligugé", "Commune": "Ligugé" }, "geometry": { "type": "Point", "coordinates": [ 0.322109143396286, 46.542373298176678 ] } },
{ "type": "Feature", "properties": { "gml_id": "F6239__961", "OBJECTID": 961, "Numéro_de_borne": 335, "Volume": 3, "Fréquence_de_la_collecte": "14 jours", "Adresse": "Rue Sainte Croix\nJuste après la mairie en allant vers la crèche angle de la rue sur la gauche" }, "geometry": { "type": "Point", "coordinates": [ 0.353185178855845, 46.59931353065457 ] } },
{ "type": "Feature", "properties": { "gml_id": "F6239__4817", "OBJECTID": 4817, "Numéro_de_borne": 804, "Volume": 0, "Fréquence_de_la_collecte": "14 jours", "Adresse": "Avenue de la Plage, en revenant du stade sur la droite, direction la gare", "Commune": "Ligugé" }, "geometry": { "type": "Point", "coordinates": [ 0.334076533284307, 46.518606539986564 ] } },
{ "type": "Feature", "properties": { "gml_id": "F6239__4818", "OBJECTID": 4818, "Numéro_de_borne": 805, "Volume": 0, "Fréquence_de_la_collecte": "30 jours", "Adresse": "Stade\nSortie de Ligugé en direction de Smarves", "Commune": "Ligugé" }, "geometry": { "type": "Point", "coordinates": [ 0.340266897641327, 46.518248235266931 ] } },
{ "type": "Feature", "properties": { "gml_id": "F6239__4819", "OBJECTID": 4819, "Numéro_de_borne": 813, "Volume": 0, "Fréquence_de_la_collecte": "14 jours", "Adresse": "L'Aumonerie\nCroisement sur la gauche en direct de Mac Donald's", "Commune": "Ligugé" }, "geometry": { "type": "Point", "coordinates": [ 0.296740013250583, 46.536700900659731 ] } },
{ "type": "Feature", "properties": { "gml_id": "F6239__99", "OBJECTID": 99, "Numéro_de_borne": 333, "Volume": 3, "Fréquence_de_la_collecte": "14 jours", "Adresse": "face au n°9 a côté des garages" }, "geometry": { "type": "Point", "coordinates": [ 0.343505076112639, 46.596518929895709 ] } },
{ "type": "Feature", "properties": { "gml_id": "F6239__249", "OBJECTID": 249, "Numéro_de_borne": 324, "Volume": 3, "Fréquence_de_la_collecte": "7 jours", "Adresse": "Avenue de la Liberté\nMaison des projets face n° 39 derrière le transformateur" }, "geometry": { "type": "Point", "coordinates": [ 0.361075313490602, 46.6028634203103 ] } },
{ "type": "Feature", "properties": { "gml_id": "F6239__25", "OBJECTID": 25, "Numéro_de_borne": 331, "Volume": 3, "Fréquence_de_la_collecte": "14 jours", "Adresse": "Route de Lessart rue de la Vincenderie\nsur le parking de Valvert" }, "geometry": { "type": "Point", "coordinates": [ 0.347344182506016, 46.603222766282627 ] } },
{ "type": "Feature", "properties": { "gml_id": "F6239__145", "OBJECTID": 145, "Numéro_de_borne": 418, "Volume": 3, "Fréquence_de_la_collecte": "14 jours", "Adresse": "Rue des Erables\nAprès le pont autoroute sur la gauche\n" }, "geometry": { "type": "Point", "coordinates": [ 0.302370371161992, 46.623111342226302 ] } },
{ "type": "Feature", "properties": { "gml_id": "F6239__69", "OBJECTID": 69, "Numéro_de_borne": 424, "Volume": 3, "Fréquence_de_la_collecte": "14 jours", "Adresse": "Rue de la Castouarde\nLes rochereaux Rond point avec transfromateur peint\n" }, "geometry": { "type": "Point", "coordinates": [ 0.319763722562172, 46.634151128797257 ] } },
{ "type": "Feature", "properties": { "gml_id": "F6239__24", "OBJECTID": 24, "Numéro_de_borne": 481, "Volume": 3, "Fréquence_de_la_collecte": "14 jours", "Adresse": "Allée Gutenberg ACTIPARC\tSur le chemin entre trasfo et maison\n" }, "geometry": { "type": "Point", "coordinates": [ 0.302388931292747, 46.601882947489443 ] } },
{ "type": "Feature", "properties": { "gml_id": "F6239__143", "OBJECTID": 143, "Numéro_de_borne": 484, "Volume": 3, "Fréquence_de_la_collecte": "14 jours", "Adresse": "Rue des Tamaris Pouzioux\tA côté arrêt bus face allée Clos Bonnet face au bar\n" }, "geometry": { "type": "Point", "coordinates": [ 0.272061433403503, 46.607029279160059 ] } },
{ "type": "Feature", "properties": { "gml_id": "F6239__321", "OBJECTID": 321, "Numéro_de_borne": 21, "Volume": 0, "Fréquence_de_la_collecte": "0", "Adresse": "Rue du marché Notre-Dame" }, "geometry": { "type": "Point", "coordinates": [ 0.342419621936798, 46.581678187813289 ] } },
{ "type": "Feature", "properties": { "gml_id": "F6239__1", "OBJECTID": 1, "Numéro_de_borne": 195, "Volume": 4, "Fréquence_de_la_collecte": "7 jours", "Adresse": "Rue de la Garenne\nAu rond du Lycée\n" }, "geometry": { "type": "Point", "coordinates": [ 0.308651442506217, 46.550814837977612 ] } },
{ "type": "Feature", "properties": { "gml_id": "F6239__2", "OBJECTID": 2, "Numéro_de_borne": 0, "Volume": 0, "Fréquence_de_la_collecte": "0" }, "geometry": { "type": "Point", "coordinates": [ 0.339792829054821, 46.585462274900529 ] } },
{ "type": "Feature", "properties": { "gml_id": "F6239__3", "OBJECTID": 3, "Numéro_de_borne": 20, "Volume": 3, "Fréquence_de_la_collecte": "7 jours", "Adresse": "Rue du Général Sarrail\nPlace Montierneuf à côté des bornes enterrées.\n" }, "geometry": { "type": "Point", "coordinates": [ 0.343058573247398, 46.589081097154178 ] } },
{ "type": "Feature", "properties": { "gml_id": "F6239__5", "OBJECTID": 5, "Numéro_de_borne": 42, "Volume": 3, "Fréquence_de_la_collecte": "0", "Adresse": "Boulevard Chasseigne\nface jardin des plantes (en allant sur la porte de Paris)" }, "geometry": { "type": "Point", "coordinates": [ 0.348652975742799, 46.588130942271029 ] } },
{ "type": "Feature", "properties": { "gml_id": "F6239__6", "OBJECTID": 6, "Numéro_de_borne": 110, "Volume": 3, "Fréquence_de_la_collecte": "30 jours", "Adresse": "Angle rue Haut Clairvaux et rue de la Raudière\n" }, "geometry": { "type": "Point", "coordinates": [ 0.391686969147288, 46.572001175711584 ] } },
{ "type": "Feature", "properties": { "gml_id": "F6239__8", "OBJECTID": 8, "Numéro_de_borne": 130, "Volume": 3, "Fréquence_de_la_collecte": "30 jours", "Adresse": "Rue Kléber\nDevant la résidence Fructidor\n" }, "geometry": { "type": "Point", "coordinates": [ 0.374229314084026, 46.586975620434501 ] } },
{ "type": "Feature", "properties": { "gml_id": "F6239__10", "OBJECTID": 10, "Numéro_de_borne": 0, "Volume": 0, "Fréquence_de_la_collecte": "0" }, "geometry": { "type": "Point", "coordinates": [ 0.351086302110693, 46.566032210744446 ] } },
{ "type": "Feature", "properties": { "gml_id": "F6239__11", "OBJECTID": 11, "Numéro_de_borne": 160, "Volume": 3, "Fréquence_de_la_collecte": "0", "Adresse": "Rue des Frères Morane\nsur le stabilisé à côté des emplacements poubelle." }, "geometry": { "type": "Point", "coordinates": [ 0.323980910165546, 46.591316473672599 ] } },
{ "type": "Feature", "properties": { "gml_id": "F6239__14", "OBJECTID": 14, "Numéro_de_borne": 150, "Volume": 3, "Fréquence_de_la_collecte": "14 jours", "Adresse": "Rue de la Grange St Pierre\tFoyer Gérard Gaschet. Sur trottoir du parking (Emplacement poubelle)\n" }, "geometry": { "type": "Point", "coordinates": [ 0.336435610356144, 46.60548557457232 ] } },
{ "type": "Feature", "properties": { "gml_id": "F6239__16", "OBJECTID": 16, "Numéro_de_borne": 238, "Volume": 3, "Fréquence_de_la_collecte": "14 jours", "Adresse": "Rue des Couronneries\nA l'entrée du parking sur la gauche. Face maison n° 89 et 91\n" }, "geometry": { "type": "Point", "coordinates": [ 0.354870954282473, 46.591262147982015 ] } },
{ "type": "Feature", "properties": { "gml_id": "F6239__17", "OBJECTID": 17, "Numéro_de_borne": 240, "Volume": 3, "Fréquence_de_la_collecte": "30 jours", "Adresse": "Rue de Nimègue\nEntre batiment n° 9 et 11 à côté du Point de regroupement\n" }, "geometry": { "type": "Point", "coordinates": [ 0.361492542161309, 46.591086306130464 ] } },
{ "type": "Feature", "properties": { "gml_id": "F6239__19", "OBJECTID": 19, "Numéro_de_borne": 282, "Volume": 3, "Fréquence_de_la_collecte": "30 jours", "Adresse": "Rue de la Vallée aux loups\tA côté transformateur EDF peint\n" }, "geometry": { "type": "Point", "coordinates": [ 0.361318630659405, 46.580173833920846 ] } },
{ "type": "Feature", "properties": { "gml_id": "F6239__21", "OBJECTID": 21, "Numéro_de_borne": 128, "Volume": 3, "Fréquence_de_la_collecte": "30 jours", "Adresse": "Rue Monge\nSur parking face n°2 résidence Varenne\n" }, "geometry": { "type": "Point", "coordinates": [ 0.377870653984056, 46.586864841964044 ] } },
{ "type": "Feature", "properties": { "gml_id": "F6239__22", "OBJECTID": 22, "Numéro_de_borne": 0, "Volume": 0, "Fréquence_de_la_collecte": "0", "Observation": "bac verre 340" }, "geometry": { "type": "Point", "coordinates": [ 0.344986712373198, 46.586292296217088 ] } },
{ "type": "Feature", "properties": { "gml_id": "F6239__23", "OBJECTID": 23, "Numéro_de_borne": 43, "Volume": 3, "Fréquence_de_la_collecte": "30 jours", "Adresse": "Angle bd de Lattre de Tassigny et rue Georges Servant\nPoint de Secours\n" }, "geometry": { "type": "Point", "coordinates": [ 0.350896656789209, 46.58504690763322 ] } },
{ "type": "Feature", "properties": { "gml_id": "F6239__26", "OBJECTID": 26, "Numéro_de_borne": 332, "Volume": 3, "Fréquence_de_la_collecte": "14 jours", "Adresse": "Angle allée de Puy Mire et rue de la coulée\nSur le trottoir  en stabilisé\n" }, "geometry": { "type": "Point", "coordinates": [ 0.357861137196332, 46.607610037517865 ] } },
{ "type": "Feature", "properties": { "gml_id": "F6239__27", "OBJECTID": 27, "Numéro_de_borne": 461, "Volume": 3, "Fréquence_de_la_collecte": "14 jours", "Adresse": "Rue des Perdrix\nSalle de la Hune à côté du transformateur\n" }, "geometry": { "type": "Point", "coordinates": [ 0.343499948574213, 46.559041061509006 ] } },
{ "type": "Feature", "properties": { "gml_id": "F6239__28", "OBJECTID": 28, "Numéro_de_borne": 295, "Volume": 3, "Fréquence_de_la_collecte": "14 jours", "Adresse": "Lieu dit \"la Ferrière\"\nLa Bigoterie\n" }, "geometry": { "type": "Point", "coordinates": [ 0.188804788216378, 46.580928446155127 ] } },
{ "type": "Feature", "properties": { "gml_id": "F6239__30", "OBJECTID": 30, "Numéro_de_borne": 354, "Volume": 3, "Fréquence_de_la_collecte": "14 jours", "Adresse": "Rue de la Grenadiére (grand pont)\tA gauche sous le pont d'autoroute\n" }, "geometry": { "type": "Point", "coordinates": [ 0.355048743688391, 46.641017296369192 ] } },
{ "type": "Feature", "properties": { "gml_id": "F6239__33", "OBJECTID": 33, "Numéro_de_borne": 426, "Volume": 3, "Fréquence_de_la_collecte": "14 jours", "Adresse": "Moulinet RD 30\nAire de stationnement avant d'entrer sur Moulinet en venant de la déchetterie de St Nicolas\n" }, "geometry": { "type": "Point", "coordinates": [ 0.281889189122006, 46.616630931821312 ] } },
{ "type": "Feature", "properties": { "gml_id": "F6239__35", "OBJECTID": 35, "Numéro_de_borne": 358, "Volume": 3, "Fréquence_de_la_collecte": "14 jours", "Adresse": "Rue des Bergeronettes (lotissement)\nEnviron 30 m à droite après l'entrée de la cité. À côté du transformateur\n" }, "geometry": { "type": "Point", "coordinates": [ 0.382181864634484, 46.657437725405586 ] } },
{ "type": "Feature", "properties": { "gml_id": "F6239__36", "OBJECTID": 36, "Numéro_de_borne": 397, "Volume": 3, "Fréquence_de_la_collecte": "14 jours", "Adresse": "Place de l'église devant RN 147\tA droite des toilettes publics\n" }, "geometry": { "type": "Point", "coordinates": [ 0.414383774203704, 46.544096363470686 ] } },
{ "type": "Feature", "properties": { "gml_id": "F6239__37", "OBJECTID": 37, "Numéro_de_borne": 401, "Volume": 3, "Fréquence_de_la_collecte": "14 jours", "Adresse": "Route de Savigny Lévescault\tSur la place du cimetière\n" }, "geometry": { "type": "Point", "coordinates": [ 0.42756580565264, 46.54560077497711 ] } },
{ "type": "Feature", "properties": { "gml_id": "F6239__38", "OBJECTID": 38, "Numéro_de_borne": 395, "Volume": 3, "Fréquence_de_la_collecte": "14 jours", "Adresse": "Allée des Magnals\nSur parking derrière la Mairie\n" }, "geometry": { "type": "Point", "coordinates": [ 0.413689534355122, 46.541369403596732 ] } },
{ "type": "Feature", "properties": { "gml_id": "F6239__39", "OBJECTID": 39, "Numéro_de_borne": 0, "Volume": 0, "Fréquence_de_la_collecte": "0" }, "geometry": { "type": "Point", "coordinates": [ 0.346661473517783, 46.57843648607664 ] } },
{ "type": "Feature", "properties": { "gml_id": "F6239__40", "OBJECTID": 40, "Numéro_de_borne": 0, "Volume": 0, "Fréquence_de_la_collecte": "0" }, "geometry": { "type": "Point", "coordinates": [ 0.343858614987151, 46.579081838513389 ] } },
{ "type": "Feature", "properties": { "gml_id": "F6239__41", "OBJECTID": 41, "Numéro_de_borne": 136, "Volume": 3, "Fréquence_de_la_collecte": "7 jours", "Adresse": "Angle avenue du Tiers Etat et rue Robespiere\n" }, "geometry": { "type": "Point", "coordinates": [ 0.381029937926664, 46.593019800792518 ] } },
{ "type": "Feature", "properties": { "gml_id": "F6239__42", "OBJECTID": 42, "Numéro_de_borne": 0, "Volume": 0, "Fréquence_de_la_collecte": "0" }, "geometry": { "type": "Point", "coordinates": [ 0.338934391455573, 46.576983304527651 ] } },
{ "type": "Feature", "properties": { "gml_id": "F6239__43", "OBJECTID": 43, "Numéro_de_borne": 35, "Volume": 3, "Fréquence_de_la_collecte": "14 jours", "Adresse": "Boulevard sous Blossac\nA droite avant arrêt de bus (en allant vers pont St Cyprien)\n" }, "geometry": { "type": "Point", "coordinates": [ 0.329328234453289, 46.573061843360115 ] } },
{ "type": "Feature", "properties": { "gml_id": "F6239__44", "OBJECTID": 44, "Numéro_de_borne": 104, "Volume": 3, "Fréquence_de_la_collecte": "14 jours", "Adresse": "Avenue Iaroslav\nSur trottoir proche transformateur. Après la rue de la Jaille (en allant sur Casino)\n" }, "geometry": { "type": "Point", "coordinates": [ 0.385868434414046, 46.573711169830119 ] } },
{ "type": "Feature", "properties": { "gml_id": "F6239__49", "OBJECTID": 49, "Numéro_de_borne": 162, "Volume": 3, "Fréquence_de_la_collecte": "30 jours", "Adresse": "Rue de la Cassette\nentre le n°16 et 20. Le long de la Boivre direction Maillochon\n" }, "geometry": { "type": "Point", "coordinates": [ 0.327277619571689, 46.577405304398603 ] } },
{ "type": "Feature", "properties": { "gml_id": "F6239__50", "OBJECTID": 50, "Numéro_de_borne": 277, "Volume": 3, "Fréquence_de_la_collecte": "7 jours", "Adresse": "Angle rue Faubourg du Pont Neuf et route de Gençay\nDans la pointe du magasin Picard\n" }, "geometry": { "type": "Point", "coordinates": [ 0.35900136644778, 46.572377330083484 ] } },
{ "type": "Feature", "properties": { "gml_id": "F6239__54", "OBJECTID": 54, "Numéro_de_borne": 230, "Volume": 3, "Fréquence_de_la_collecte": "30 jours", "Adresse": "Rue de Provence\nEntre résidence Charles Perrault et résidence la Fontaine\n" }, "geometry": { "type": "Point", "coordinates": [ 0.356721957432288, 46.588386283322443 ] } },
{ "type": "Feature", "properties": { "gml_id": "F6239__57", "OBJECTID": 57, "Numéro_de_borne": 56, "Volume": 3, "Fréquence_de_la_collecte": "14 jours", "Adresse": "Rue d'Osmoy et rue René Amand\tSur le trottoir\n" }, "geometry": { "type": "Point", "coordinates": [ 0.351064378049822, 46.564150562890369 ] } },
{ "type": "Feature", "properties": { "gml_id": "F6239__59", "OBJECTID": 59, "Numéro_de_borne": 463, "Volume": 3, "Fréquence_de_la_collecte": "7 jours", "Adresse": "Route des Groges (Fontarnaud)\tVers la grille de la centrale électrique\n" }, "geometry": { "type": "Point", "coordinates": [ 0.3609383697645, 46.55767412431247 ] } },
{ "type": "Feature", "properties": { "gml_id": "F6239__60", "OBJECTID": 60, "Numéro_de_borne": 0, "Volume": 0, "Fréquence_de_la_collecte": "0" }, "geometry": { "type": "Point", "coordinates": [ 0.332329765213426, 46.55563381609511 ] } },
{ "type": "Feature", "properties": { "gml_id": "F6239__62", "OBJECTID": 62, "Numéro_de_borne": 0, "Volume": 0, "Fréquence_de_la_collecte": "0" }, "geometry": { "type": "Point", "coordinates": [ 0.310986538784156, 46.585464769687043 ] } },
{ "type": "Feature", "properties": { "gml_id": "F6239__63", "OBJECTID": 63, "Numéro_de_borne": 66, "Volume": 3, "Fréquence_de_la_collecte": "7 jours", "Adresse": "Rue du Pontreau\t\nDevant batiment n°9 (derrière plots béton)\n" }, "geometry": { "type": "Point", "coordinates": [ 0.355105109104825, 46.568505087439135 ] } },
{ "type": "Feature", "properties": { "gml_id": "F6239__64", "OBJECTID": 64, "Numéro_de_borne": 106, "Volume": 3, "Fréquence_de_la_collecte": "7 jours", "Adresse": "Angle av.d'Iassy et rue de la Foucaudière\nDans l'angle\n" }, "geometry": { "type": "Point", "coordinates": [ 0.393030516220217, 46.573192881959784 ] } },
{ "type": "Feature", "properties": { "gml_id": "F6239__65", "OBJECTID": 65, "Numéro_de_borne": 101, "Volume": 4, "Fréquence_de_la_collecte": "30 jours", "Adresse": "Angle de la rue Lavoisier et rue des frèresLumières\nFace Super Sport\n" }, "geometry": { "type": "Point", "coordinates": [ 0.374006357662396, 46.576646913381431 ] } },
{ "type": "Feature", "properties": { "gml_id": "F6239__68", "OBJECTID": 68, "Numéro_de_borne": 379, "Volume": 3, "Fréquence_de_la_collecte": "30 jours", "Adresse": "Rue du Vercors (zone d'activité)\tSur parking arrêt bus entrée livraison Auchan\n", "Commune": "Fontaine-le-Comte" }, "geometry": { "type": "Point", "coordinates": [ 0.278834718170381, 46.530273397858323 ] } },
{ "type": "Feature", "properties": { "gml_id": "F6239__70", "OBJECTID": 70, "Numéro_de_borne": 495, "Volume": 3, "Fréquence_de_la_collecte": "14 jours", "Adresse": "Rue des Pépinières Pouzioux\tFace au n° 12 et 14 sur place avec terrain de boule\n" }, "geometry": { "type": "Point", "coordinates": [ 0.284677391628638, 46.601619780499128 ] } },
{ "type": "Feature", "properties": { "gml_id": "F6239__72", "OBJECTID": 72, "Numéro_de_borne": 0, "Volume": 0, "Fréquence_de_la_collecte": "0" }, "geometry": { "type": "Point", "coordinates": [ 0.437744406594942, 46.632371071110775 ] } },
{ "type": "Feature", "properties": { "gml_id": "F6239__73", "OBJECTID": 73, "Numéro_de_borne": 0, "Volume": 0, "Fréquence_de_la_collecte": "0" }, "geometry": { "type": "Point", "coordinates": [ 0.35752389421447, 46.66294799682791 ] } },
{ "type": "Feature", "properties": { "gml_id": "F6239__74", "OBJECTID": 74, "Numéro_de_borne": 359, "Volume": 3, "Fréquence_de_la_collecte": "14 jours", "Adresse": "Angle de l'allée des Peupliers et l'allée des Communaux\nLe long de la voie gerrée, vers le centre aéré à droite du portail vert\n" }, "geometry": { "type": "Point", "coordinates": [ 0.363233262031865, 46.63987662362225 ] } },
{ "type": "Feature", "properties": { "gml_id": "F6239__75", "OBJECTID": 75, "Numéro_de_borne": 402, "Volume": 3, "Fréquence_de_la_collecte": "7 jours", "Adresse": "Allée des Davitaires (lotissement)\tDevant abri bus chemin de beaubâton\n" }, "geometry": { "type": "Point", "coordinates": [ 0.406779337267044, 46.544550724043013 ] } },
{ "type": "Feature", "properties": { "gml_id": "F6239__76", "OBJECTID": 76, "Numéro_de_borne": 0, "Volume": 0, "Fréquence_de_la_collecte": "0" }, "geometry": { "type": "Point", "coordinates": [ 0.388904843005704, 46.59429816071242 ] } },
{ "type": "Feature", "properties": { "gml_id": "F6239__77", "OBJECTID": 77, "Numéro_de_borne": 135, "Volume": 3, "Fréquence_de_la_collecte": "14 jours", "Adresse": "Rue Bailly\nSur parking du nouveau Gymnase côté bornes enterrées\n" }, "geometry": { "type": "Point", "coordinates": [ 0.386143190459421, 46.59007067347828 ] } },
{ "type": "Feature", "properties": { "gml_id": "F6239__78", "OBJECTID": 78, "Numéro_de_borne": 10, "Volume": 4, "Fréquence_de_la_collecte": "7 jours", "Adresse": "Place Charles de Gaulle\nrond point voie malraux \n" }, "geometry": { "type": "Point", "coordinates": [ 0.345154216098603, 46.583951301185309 ] } },
{ "type": "Feature", "properties": { "gml_id": "F6239__79", "OBJECTID": 79, "Numéro_de_borne": 13, "Volume": 3, "Fréquence_de_la_collecte": "7 jours", "Adresse": "Place de la Liberté\nA droite des bornes enterrées. Sur place de parking\n" }, "geometry": { "type": "Point", "coordinates": [ 0.343075646384251, 46.585591185946612 ] } },
{ "type": "Feature", "properties": { "gml_id": "F6239__80", "OBJECTID": 80, "Numéro_de_borne": 22, "Volume": 3, "Fréquence_de_la_collecte": "14 jours", "Adresse": "Angle de la Ste Crois et Rue Jean Jaurés\t\nComme avant.\n" }, "geometry": { "type": "Point", "coordinates": [ 0.349580985665649, 46.57934580475527 ] } },
{ "type": "Feature", "properties": { "gml_id": "F6239__82", "OBJECTID": 82, "Numéro_de_borne": 83, "Volume": 3, "Fréquence_de_la_collecte": "30 jours", "Adresse": "Angle rue Evariste Gallois et rue du Studel\nsur trottoir devant feu clignotant\n" }, "geometry": { "type": "Point", "coordinates": [ 0.368613699710748, 46.567594472471399 ] } },
{ "type": "Feature", "properties": { "gml_id": "F6239__83", "OBJECTID": 83, "Numéro_de_borne": 0, "Volume": 0, "Fréquence_de_la_collecte": "0" }, "geometry": { "type": "Point", "coordinates": [ 0.369790261383551, 46.571257745007728 ] } },
{ "type": "Feature", "properties": { "gml_id": "F6239__84", "OBJECTID": 84, "Numéro_de_borne": 0, "Volume": 2, "Fréquence_de_la_collecte": "0", "Adresse": "Rue des Sablonnières\nPrès du bâtiment n°7 (emplacement poubelles)" }, "geometry": { "type": "Point", "coordinates": [ 0.338690161515445, 46.567657439868732 ] } },
{ "type": "Feature", "properties": { "gml_id": "F6239__88", "OBJECTID": 88, "Numéro_de_borne": 165, "Volume": 3, "Fréquence_de_la_collecte": "7 jours", "Adresse": "Rue de la Demi-lune\tIntermarché de la demi-lune. Trottoir au pied de la station essence\n" }, "geometry": { "type": "Point", "coordinates": [ 0.324381472187946, 46.599557863797209 ] } },
{ "type": "Feature", "properties": { "gml_id": "F6239__89", "OBJECTID": 89, "Numéro_de_borne": 0, "Volume": 2, "Fréquence_de_la_collecte": "0", "Adresse": "Rue du Carreau\nMarché de gros (comme d'habitude)" }, "geometry": { "type": "Point", "coordinates": [ 0.341224873664596, 46.607332357205962 ] } },
{ "type": "Feature", "properties": { "gml_id": "F6239__90", "OBJECTID": 90, "Numéro_de_borne": 201, "Volume": 3, "Fréquence_de_la_collecte": "14 jours", "Adresse": "Rue du petit Ruisseau\tRenfoncement dur la gauche. Face au n°1\n" }, "geometry": { "type": "Point", "coordinates": [ 0.314675439430752, 46.566968344022733 ] } },
{ "type": "Feature", "properties": { "gml_id": "F6239__91", "OBJECTID": 91, "Numéro_de_borne": 163, "Volume": 3, "Fréquence_de_la_collecte": "7 jours", "Adresse": "Angle rue Santos Dumont rue de l'Ageasse\nPrès du transformateur\n" }, "geometry": { "type": "Point", "coordinates": [ 0.31597577727146, 46.577293675113808 ] } },
{ "type": "Feature", "properties": { "gml_id": "F6239__92", "OBJECTID": 92, "Numéro_de_borne": 231, "Volume": 3, "Fréquence_de_la_collecte": "30 jours", "Adresse": "Rue de Slovénie\nFace batiment n°80 et face Tabac Presse\n" }, "geometry": { "type": "Point", "coordinates": [ 0.363242712568331, 46.587814687516335 ] } },
{ "type": "Feature", "properties": { "gml_id": "F6239__93", "OBJECTID": 93, "Numéro_de_borne": 245, "Volume": 3, "Fréquence_de_la_collecte": "30 jours", "Adresse": "Rue Henri Dunant\tSur trottoir entre batiment n°11 et 20 (marquage au sol pour l'école)\n" }, "geometry": { "type": "Point", "coordinates": [ 0.363525821460483, 46.5908960938701 ] } },
{ "type": "Feature", "properties": { "gml_id": "F6239__95", "OBJECTID": 95, "Numéro_de_borne": 278, "Volume": 3, "Fréquence_de_la_collecte": "14 jours", "Adresse": "Rue William Booth\nAngle de la rue de Beaulieu (devant panneau LEP Dolment)\n" }, "geometry": { "type": "Point", "coordinates": [ 0.368151768880284, 46.575678441218955 ] } },
{ "type": "Feature", "properties": { "gml_id": "F6239__96", "OBJECTID": 96, "Numéro_de_borne": 321, "Volume": 3, "Fréquence_de_la_collecte": "14 jours", "Adresse": "Route de la Valllée \nDevant le Château d'eau ( sans bloquer borne incendie et transformateur)\n" }, "geometry": { "type": "Point", "coordinates": [ 0.371264407417802, 46.611035334851955 ] } },
{ "type": "Feature", "properties": { "gml_id": "F6239__97", "OBJECTID": 97, "Numéro_de_borne": 323, "Volume": 3, "Fréquence_de_la_collecte": "14 jours", "Adresse": "Place des grillons\nPlace de parking face n° 13 face Gam vert\n" }, "geometry": { "type": "Point", "coordinates": [ 0.362644479005824, 46.605351308099905 ] } },
{ "type": "Feature", "properties": { "gml_id": "F6239__101", "OBJECTID": 101, "Numéro_de_borne": 64, "Volume": 3, "Fréquence_de_la_collecte": "30 jours", "Adresse": "Angle rue du Fief de Grimoire et allée du verger de Grimoire\tSur le trottoir près du transformateur\n" }, "geometry": { "type": "Point", "coordinates": [ 0.340721683924618, 46.569912688947525 ] } },
{ "type": "Feature", "properties": { "gml_id": "F6239__103", "OBJECTID": 103, "Numéro_de_borne": 0, "Volume": 0, "Fréquence_de_la_collecte": "0" }, "geometry": { "type": "Point", "coordinates": [ 0.273119658684744, 46.578566139175678 ] } },
{ "type": "Feature", "properties": { "gml_id": "F6239__104", "OBJECTID": 104, "Numéro_de_borne": 0, "Volume": 0, "Fréquence_de_la_collecte": "0", "Commune": "Fontaine-le-Comte" }, "geometry": { "type": "Point", "coordinates": [ 0.251448847656928, 46.540477266180709 ] } },
{ "type": "Feature", "properties": { "gml_id": "F6239__105", "OBJECTID": 105, "Numéro_de_borne": 494, "Volume": 3, "Fréquence_de_la_collecte": "14 jours", "Adresse": "Rue des Chails Précharaux\tTrottoir face à la rue des Cormiers\n" }, "geometry": { "type": "Point", "coordinates": [ 0.289040200394119, 46.555419706762578 ] } },
{ "type": "Feature", "properties": { "gml_id": "F6239__106", "OBJECTID": 106, "Numéro_de_borne": 368, "Volume": 0, "Fréquence_de_la_collecte": "0", "Commune": "Croutelle" }, "geometry": { "type": "Point", "coordinates": [ 0.289482387579186, 46.537034403532196 ] } },
{ "type": "Feature", "properties": { "gml_id": "F6239__107", "OBJECTID": 107, "Numéro_de_borne": 383, "Volume": 3, "Fréquence_de_la_collecte": "7 jours", "Adresse": "Route de Béruges\nVers dos d'âne sortie déchetterie\n", "Commune": "Fontaine-le-Comte" }, "geometry": { "type": "Point", "coordinates": [ 0.253808103716443, 46.539140561570854 ] } },
{ "type": "Feature", "properties": { "gml_id": "F6239__110", "OBJECTID": 110, "Numéro_de_borne": 415, "Volume": 3, "Fréquence_de_la_collecte": "14 jours", "Adresse": "Rue de Saumur\nface au n°47 (axe Poitiers-Neuville) avant la direction de Vendeuvre " }, "geometry": { "type": "Point", "coordinates": [ 0.301554179579257, 46.632309679912844 ] } },